ident,type,name,latitude_deg,longitude_deg,iso_country,iso_region
OMAA,large_airport,Abu Dhabi International Airport,24.43300056,54.65110016,AE,AE-AZ
OMAC,closed,Asab Airfield,23.29809952,54.22169876,AE,AE-AZ
OMAD,medium_airport,Bateen Airport,24.42830086,54.45809937,AE,AE-AZ
OMAL,medium_airport,Al Ain International Airport,24.26169968,55.60919952,AE,AE-AZ
OMAM,medium_airport,Al Dhafra Air Base,24.24819946,54.54769897,AE,AE-AZ
OMBY,medium_airport,Sir Bani Yas Airport,24.283611,52.580278,AE,AE-AZ
OMDB,large_airport,Dubai International Airport,25.25279999,55.36439896,AE,AE-DU
OMDM,medium_airport,Al Minhad Air Base,25.02680016,55.36619949,AE,AE-DU
OMDW,large_airport,Al Maktoum International Airport,24.896356,55.161389,AE,AE-DU
OMFJ,medium_airport,Fujairah International Airport,25.11219978,56.32400131,AE,AE-FU
OMRK,medium_airport,Ras Al Khaimah International Airport,25.6135006,55.93880081,AE,AE-RK
OMSJ,large_airport,Sharjah International Airport,25.32859993,55.51720047,AE,AE-SH
TAPA,medium_airport,V.C. Bird International Airport,17.1367,-61.792702,AG,AG-03
TQPF,medium_airport,Clayton J Lloyd International Airport,18.2048,-63.055099,AI,AI-U-A
AL-0001,closed,Lapraka Heliport,41.333302,19.7913,AL,AL-11
AL-0002,closed,Aeroporti i Korroticës së Ulët,42.6051923,20.9096986,AL,AL-U-A
AL-0003,closed,Aeroporti i Mifoit,40.6061798,19.4262538,AL,AL-U-A
AL-LA10,closed,Gjirokastër Airport,40.087889,20.151917,AL,AL-05
LAGJ,closed,Gjadër Air Base,41.895199,19.5987,AL,AL-08
LAKU,medium_airport,Kukës Airport,42.03369904,20.41589928,AL,AL-07
LAKV,medium_airport,Kuçovë Air Base,40.77190018,19.90189934,AL,AL-01
LASK,closed,Shkodër Airport,42.089361,19.509111,AL,AL-10
LATI,large_airport,Tirana International Airport Mother Teresa,41.41469955,19.72060013,AL,AL-11
LAVL,medium_airport,Vlorë Air Base,40.47610092,19.4741993,AL,AL-12
AM-0001,closed,Kapan Airport,39.20299912,46.45500183,AM,AM-SU
AM-0005,closed,Gavar Airport,40.37120115,45.097332,AM,AM-GR
AM-0006,closed,Mets Mazrik Airstrip,40.19985489,45.77711105,AM,AM-GR
AM-0007,closed,Meghri Airport,38.91157257,46.19892597,AM,AM-SU
UDSG,medium_airport,Gyumri Shirak Airport,40.75040054,43.85929871,AM,AM-SH
UDYE,medium_airport,Erebuni Airport,40.12210083,44.46500015,AM,AM-ER
UDYZ,large_airport,Zvartnots International Airport,40.14730072,44.39590073,AM,AM-ER
UGEJ,medium_airport,Dzhermuk Airport,39.82400131,45.67399979,AM,AM-VD
AO-0009,closed,Cuangar Old Airport,-17.599985,18.623552,AO,AO-CCU
AO-0010,closed,Savate Airport,-16.880647,18.002593,AO,AO-CCU
AO-0013,closed,Luiana Airport,-17.380791,23.002339,AO,AO-CCU
AO-0014,closed,Coutada Airport,-17.017654,21.301774,AO,AO-CCU
AO-0015,closed,Rivungo Airport,-15.793551,21.380704,AO,AO-CCU
AO-0018,closed,Luena Airport,-12.740271,20.736829,AO,AO-MOX
AO-0026,closed,Nova Chaves Airport,-10.598408,21.315093,AO,AO-CUS
AO-0031,closed,Cazaje Airport,-11.063437,20.695914,AO,AO-LSU
AO-0036,closed,Namacunde Airport,-17.302638,15.850786,AO,AO-CNN
FNBC,medium_airport,Mbanza Congo Airport,-6.269899845,14.24699974,AO,AO-ZAI
FNBG,medium_airport,Benguela Airport,-12.60900021,13.40369987,AO,AO-BGU
FNCA,medium_airport,Cabinda Airport,-5.596990108,12.18840027,AO,AO-CAB
FNCT,medium_airport,Catumbela Airport,-12.4792,13.4869,AO,AO-BGU
FNDU,medium_airport,Dundo Airport,-7.400889874,20.81850052,AO,AO-LNO
FNGI,medium_airport,Ngjiva Pereira Airport,-17.0435009,15.68379974,AO,AO-CNN
FNHU,medium_airport,Nova Lisboa Airport,-12.80889988,15.76049995,AO,AO-HUA
FNKU,medium_airport,Kuito Airport,-12.40460014,16.94739914,AO,AO-BIE
FNLU,large_airport,Quatro de Fevereiro Airport,-8.85837,13.2312,AO,AO-LUA
FNMA,medium_airport,Malanje Airport,-9.525090218,16.31240082,AO,AO-MAL
FNME,medium_airport,Menongue Airport,-14.6576004,17.71980095,AO,AO-CCU
FNMO,medium_airport,Namibe Airport,-15.26119995,12.14680004,AO,AO-NAM
FNNG,medium_airport,Negage Airport,-7.754509926,15.2876997,AO,AO-UIG
FNPA,medium_airport,Porto Amboim Airport,-10.72200012,13.76550007,AO,AO-CUS
FNSA,medium_airport,Saurimo Airport,-9.689069748,20.43190002,AO,AO-LSU
FNSO,medium_airport,Soyo Airport,-6.141089916,12.37180042,AO,AO-ZAI
FNSU,medium_airport,Sumbe Airport,-11.16790009,13.84749985,AO,AO-CUS
FNUB,medium_airport,Lubango Airport,-14.92469978,13.57499981,AO,AO-HUI
FNUE,medium_airport,Luena Airport,-11.76809978,19.89769936,AO,AO-MOX
FNUG,medium_airport,Uige Airport,-7.603069782,15.02779961,AO,AO-UIG
FNXA,medium_airport,Xangongo Airport,-16.7553997,14.96529961,AO,AO-CNN
LAD,closed,Angola International Airport (Under Construction),-9.0484,13.5026,AO,AO-LUA
AQ-0004,closed,Base Cientifica Ellsworth,-77.650008,-41.0333,AQ,AQ-U-A
NZPG,medium_airport,McMurdo Station Pegasus Field,-77.96340179,166.5249939,AQ,AQ-U-A
NZSP,medium_airport,South Pole Station Airport,-90,0,AQ,AQ-U-A
NZWD,medium_airport,Williams Field,-77.86740112,167.0570068,AQ,AQ-U-A
AR-0015,closed,Saenz Peña Airport,-26.81579971,-60.44829941,AR,AR-H
AR-0016,closed,(Old) Antoine De Saint Exupery Airport,-40.74010086,-64.98049927,AR,AR-R
AR-0064,closed,Benavidez Airport,-34.388054,-58.663887,AR,AR-B
AR-0175,closed,General Rodriguez Airport,-34.497234,-59.037457,AR,AR-B
AR-0223,closed,La Fantasia,-34.7286,-59.109402,AR,AR-B
AR-0389,closed,Carlos Saqui Airport,-31.63500023,-63.86109924,AR,AR-X
AR-0409,closed,Estancia El Chañar Airport,-31.2887,-62.4189,AR,AR-X
AR-0428,closed,Guatraché Airport,-37.68280029,-63.55080032,AR,AR-L
AR-0430,closed,Haras Trelliris Airport,-35.3314,-60.5792,AR,AR-B
AR-0443,closed,Match Point Airport,-34.5161,-59.1339,AR,AR-B
AR-0484,closed,General Alvear Airport,-35.9783,-59.9061,AR,AR-B
AR-0639,closed,Pinto Airport,-29.152266,-62.675025,AR,AR-G
AR-0642,closed,Los Juries Airport,-28.477432,-62.1226,AR,AR-G
SA30,closed,Colonia Catriel Airport,-37.91019821,-67.83499908,AR,AR-R
SAAC,medium_airport,Comodoro Pierrestegui Airport,-31.2969,-57.9966,AR,AR-E
SAAG,medium_airport,Gualeguaychu Airport,-33.0103,-58.6131,AR,AR-E
SAAM,closed,Mazaruca Airport,-33.596001,-59.266998,AR,AR-E
SAAP,medium_airport,General Urquiza Airport,-31.7948,-60.4804,AR,AR-E
SAAR,medium_airport,Islas Malvinas Airport,-32.9036,-60.785,AR,AR-S
SAAV,medium_airport,Sauce Viejo Airport,-31.7117,-60.8117,AR,AR-S
SABE,medium_airport,Jorge Newbery Airpark,-34.5592,-58.4156,AR,AR-C
SACO,medium_airport,Ingeniero Ambrosio Taravella Airport,-31.323601,-64.208,AR,AR-X
SACT,closed,Chamical Airport,-30.34530067,-66.29360198,AR,AR-F
SADD,closed,Don Torcuato Airport,-34.49810028,-58.60419846,AR,AR-B
SADF,medium_airport,San Fernando Airport,-34.4532,-58.5896,AR,AR-B
SADG,closed,Monte Grande Airport,-34.805599,-58.492001,AR,AR-B
SADL,medium_airport,La Plata Airport,-34.9722,-57.8947,AR,AR-B
SADP,medium_airport,El Palomar Airport,-34.6099,-58.6126,AR,AR-B
SADR,closed,Merlo Airport,-34.680283,-58.742658,AR,AR-B
SAEZ,large_airport,Ministro Pistarini International Airport,-34.8222,-58.5358,AR,AR-B
SAHS,medium_airport,Rincon De Los Sauces Airport,-37.3905983,-68.90419769,AR,AR-Q
SAHZ,medium_airport,Zapala Airport,-38.975498,-70.113602,AR,AR-Q
SAME,medium_airport,El Plumerillo Airport,-32.83169937,-68.79290009,AR,AR-M
SAMM,medium_airport,Comodoro D.R. Salomón Airport,-35.49359894,-69.57430267,AR,AR-M
SAMR,medium_airport,Suboficial Ay Santiago Germano Airport,-34.588299,-68.4039,AR,AR-M
SANC,medium_airport,Catamarca Airport,-28.59560013,-65.75170136,AR,AR-K
SANE,medium_airport,Vicecomodoro Angel D. La Paz Aragonés Airport,-27.76555634,-64.30999756,AR,AR-G
SANI,closed,Tinogasta Airport,-28.037801,-67.580299,AR,AR-K
SANL,medium_airport,Capitan V A Almonacid Airport,-29.38159943,-66.79579926,AR,AR-F
SANR,medium_airport,Termas de Río Hondo international Airport,-27.4966,-64.93595,AR,AR-G
SANT,medium_airport,Teniente Benjamin Matienzo Airport,-26.8409,-65.104897,AR,AR-T
SANU,medium_airport,Domingo Faustino Sarmiento Airport,-31.571501,-68.418198,AR,AR-J
SAOC,medium_airport,Area De Material Airport,-33.08509827,-64.26129913,AR,AR-X
SAOD,medium_airport,Villa Dolores Airport,-31.94519997,-65.14630127,AR,AR-X
SAOR,medium_airport,Villa Reynolds Airport,-33.72990036,-65.38739777,AR,AR-D
SAOU,medium_airport,Brigadier Mayor D Cesar Raul Ojeda Airport,-33.27320099,-66.35639954,AR,AR-D
SAOV,medium_airport,Presidente Néstor Kirchner Regional Airport,-32.3201,-63.22663,AR,AR-X
SARC,medium_airport,Corrientes Airport,-27.4455,-58.7619,AR,AR-W
SARD,closed,Resistencia (City) Airport,-27.46570015,-58.97900009,AR,AR-H
SARE,medium_airport,Resistencia International Airport,-27.45,-59.0561,AR,AR-H
SARF,medium_airport,Formosa Airport,-26.2127,-58.2281,AR,AR-P
SARI,medium_airport,Cataratas Del Iguazú International Airport,-25.737301,-54.4734,AR,AR-N
SARL,medium_airport,Paso De Los Libres Airport,-29.6894,-57.1521,AR,AR-W
SARM,medium_airport,Monte Caseros Airport,-30.2719,-57.6402,AR,AR-W
SARO,closed,Ituzaingo Airport,-27.52610016,-56.63330078,AR,AR-W
SARP,medium_airport,Libertador Gral D Jose De San Martin Airport,-27.3858,-55.9707,AR,AR-N
SASA,medium_airport,Martin Miguel De Guemes International Airport,-24.8560009,-65.48619843,AR,AR-A
SASJ,medium_airport,Gobernador Horacio Guzman International Airport,-24.392799,-65.097801,AR,AR-Y
SASO,medium_airport,Orán Airport,-23.15279961,-64.32920074,AR,AR-A
SAST,medium_airport,General Enrique Mosconi Airport,-22.6196003,-63.79370117,AR,AR-A
SATG,medium_airport,Goya Airport,-29.1058,-59.2189,AR,AR-W
SATR,medium_airport,Reconquista Airport,-29.2103,-59.68,AR,AR-S
SATU,medium_airport,Curuzu Cuatia Airport,-29.7706,-57.9789,AR,AR-W
SAVB,medium_airport,El Bolson Airport,-41.94319916,-71.53230286,AR,AR-R
SAVC,medium_airport,General E. Mosconi Airport,-45.7853,-67.4655,AR,AR-U
SAVE,medium_airport,Brigadier Antonio Parodi Airport,-42.90800095,-71.13950348,AR,AR-U
SAVH,medium_airport,Las Heras Airport,-46.53829956,-68.96530151,AR,AR-Z
SAVT,medium_airport,Almirante Marco Andres Zar Airport,-43.2105,-65.2703,AR,AR-U
SAVV,medium_airport,Gobernador Castello Airport,-40.8692,-63.0004,AR,AR-R
SAVY,medium_airport,El Tehuelche Airport,-42.7592,-65.1027,AR,AR-U
SAWA,closed,Lago Argentino Airport,-50.336102,-72.248596,AR,AR-Z
SAWC,medium_airport,El Calafate Airport,-50.2803,-72.053101,AR,AR-Z
SAWD,medium_airport,Puerto Deseado Airport,-47.7353,-65.9041,AR,AR-Z
SAWE,medium_airport,Hermes Quijada International Airport,-53.7777,-67.7494,AR,AR-V
SAWG,medium_airport,Piloto Civil N. Fernández Airport,-51.6089,-69.3126,AR,AR-Z
SAWH,medium_airport,Malvinas Argentinas Airport,-54.8433,-68.2958,AR,AR-V
SAWJ,medium_airport,Capitan D Daniel Vazquez Airport,-49.3068,-67.8026,AR,AR-Z
SAWP,medium_airport,Perito Moreno Airport,-46.537899,-70.978699,AR,AR-Z
SAWU,medium_airport,Santa Cruz Airport,-50.0165,-68.5792,AR,AR-Z
SAZB,medium_airport,Comandante Espora Airport,-38.725,-62.1693,AR,AR-B
SAZG,medium_airport,General Pico Airport,-35.69620132,-63.75830078,AR,AR-L
SAZH,medium_airport,Tres Arroyos Airport,-38.3869,-60.3297,AR,AR-B
SAZL,medium_airport,Santa Teresita Airport,-36.5423,-56.7218,AR,AR-B
SAZM,medium_airport,Ástor Piazzola International Airport,-37.9342,-57.5733,AR,AR-B
SAZN,medium_airport,Presidente Peron Airport,-38.949001,-68.155701,AR,AR-Q
SAZO,medium_airport,Necochea Airport,-38.4831,-58.8172,AR,AR-B
SAZP,medium_airport,Comodoro Pedro Zanni Airport,-35.8446,-61.8576,AR,AR-B
SAZR,medium_airport,Santa Rosa Airport,-36.588299,-64.275703,AR,AR-L
SAZS,medium_airport,San Carlos De Bariloche Airport,-41.151199,-71.157501,AR,AR-R
SAZT,medium_airport,Héroes De Malvinas Airport,-37.23740005,-59.22790146,AR,AR-B
SAZV,medium_airport,Villa Gesell Airport,-37.2354,-57.0292,AR,AR-B
SAZW,medium_airport,Cutral-Co Airport,-38.93970108,-69.26460266,AR,AR-Q
SAZY,medium_airport,Aviador C. Campos Airport,-40.075401,-71.137299,AR,AR-Q
NSFQ,medium_airport,Fitiuta Airport,-14.2172,-169.425003,AS,AS-U-A
NSTU,medium_airport,Pago Pago International Airport,-14.33100033,-170.7100067,AS,AS-U-A
AT-0005,closed,Retzer Land Heliport,48.7545,15.9622,AT,AT-3
LOAL,closed,Leopoldsdorf Airport,48.2267,16.672199,AT,AT-3
LOAN,medium_airport,Wiener Neustadt East Airport,47.84329987,16.26009941,AT,AT-3
LOAT,closed,Trausdorf Airport,47.799999,16.566999,AT,AT-1
LOWG,medium_airport,Graz Airport,46.99110031,15.43959999,AT,AT-6
LOWI,medium_airport,Innsbruck Airport,47.260201,11.344,AT,AT-7
LOWK,medium_airport,Klagenfurt Airport,46.642502,14.3377,AT,AT-2
LOWL,medium_airport,Linz Hörsching Airport,48.2332,14.1875,AT,AT-4
LOWS,medium_airport,Salzburg Airport,47.79330063,13.00430012,AT,AT-5
LOWW,large_airport,Vienna International Airport,48.11029816,16.56970024,AT,AT-9
LOXZ,medium_airport,Hinterstoisser Air Base,47.202801,14.7442,AT,AT-6
X-VIE,closed,Aspern Airfield,48.22439957,16.50819969,AT,AT-9
AU-0001,closed,Hopetoun Airfield,-33.90850067,120.1470032,AU,AU-WA
AU-0031,closed,Avon Valley NP Airstrip,-31.60554886,116.2613144,AU,AU-WA
AU-0042,closed,Hutt River Airstrip,-28.07122297,114.4773674,AU,AU-WA
AU-0075,closed,Horse Hair Plain Aerodrome,-37.0331,147.3055,AU,AU-VIC
AU-0121,medium_airport,YKCY,-26.971197,152.566855,AU,AU-QLD
LTB,closed,Latrobe Airport,-41.23518803,146.3961697,AU,AU-TAS
RCN,closed,American River Airport,-35.7574,137.7759,AU,AU-SA
Y06Z,closed,Corunna Downs (WW II),-21.43613,119.790754,AU,AU-WA
YABA,medium_airport,Albany Airport,-34.94329834,117.8089981,AU,AU-WA
YAMB,medium_airport,RAAF Base Amberley,-27.6406,152.712006,AU,AU-QLD
YAPH,medium_airport,Alpha Airport,-23.646099,146.584,AU,AU-QLD
YARA,medium_airport,Ararat Airport,-37.30939865,142.9889984,AU,AU-VIC
YARM,medium_airport,Armidale Airport,-30.52809906,151.6170044,AU,AU-NSW
YAYE,medium_airport,Ayers Rock Connellan Airport,-25.1861,130.975998,AU,AU-NT
YBAR,medium_airport,Barcaldine Airport,-23.56529999,145.3070068,AU,AU-QLD
YBAS,medium_airport,Alice Springs Airport,-23.80669975,133.9019928,AU,AU-NT
YBBN,large_airport,Brisbane International Airport,-27.38419914,153.1170044,AU,AU-QLD
YBCG,medium_airport,Gold Coast Airport,-28.1644001,153.5050049,AU,AU-QLD
YBCK,medium_airport,Blackall Airport,-24.42779922,145.4290009,AU,AU-QLD
YBCS,medium_airport,Cairns International Airport,-16.88579941,145.7550049,AU,AU-QLD
YBCV,medium_airport,Charleville Airport,-26.41329956,146.2619934,AU,AU-QLD
YBDV,medium_airport,Birdsville Airport,-25.89749908,139.3480072,AU,AU-QLD
YBER,closed,Berwick Airport,-38.03977689,145.3360319,AU,AU-VIC
YBHI,medium_airport,Broken Hill Airport,-32.00139999,141.4720001,AU,AU-NSW
YBHM,medium_airport,Hamilton Island Airport,-20.35810089,148.9519959,AU,AU-QLD
YBIE,medium_airport,Bedourie Airport,-24.34609985,139.4600067,AU,AU-QLD
YBIK,closed,Bindook NDB,-34.166698,150.100006,AU,AU-NSW
YBKE,medium_airport,Bourke Airport,-30.03919983,145.9519958,AU,AU-NSW
YBLA,medium_airport,Benalla Airport,-36.55189896,146.0070038,AU,AU-VIC
YBMA,medium_airport,Mount Isa Airport,-20.66390038,139.4889984,AU,AU-QLD
YBMC,medium_airport,Sunshine Coast Airport,-26.6033,153.091003,AU,AU-QLD
YBMK,medium_airport,Mackay Airport,-21.17169952,149.1799927,AU,AU-QLD
YBML,closed,Bromelton Airport,-27.96829987,152.8999939,AU,AU-QLD
YBNA,medium_airport,Ballina Byron Gateway Airport,-28.83390045,153.5619965,AU,AU-NSW
YBNS,medium_airport,Bairnsdale Airport,-37.88750076,147.5679932,AU,AU-VIC
YBOK,medium_airport,Oakey Airport,-27.41139984,151.7350006,AU,AU-QLD
YBOU,medium_airport,Boulia Airport,-22.91329956,139.8999939,AU,AU-QLD
YBPN,medium_airport,Proserpine Whitsunday Coast Airport,-20.49500084,148.552002,AU,AU-QLD
YBRK,medium_airport,Rockhampton Airport,-23.38190079,150.4750061,AU,AU-QLD
YBRM,medium_airport,Broome International Airport,-17.94470024,122.2320023,AU,AU-WA
YBRN,medium_airport,Balranald Airport,-34.62360001,143.5780029,AU,AU-NSW
YBRW,medium_airport,Brewarrina Airport,-29.97389984,146.8170013,AU,AU-NSW
YBTH,medium_airport,Bathurst Airport,-33.40940094,149.6519928,AU,AU-NSW
YBTI,medium_airport,Bathurst Island Airport,-11.76920033,130.6199951,AU,AU-NT
YBTL,medium_airport,Townsville Airport,-19.25250053,146.7649994,AU,AU-QLD
YBTR,medium_airport,Blackwater Airport,-23.60309982,148.8070068,AU,AU-QLD
YBUD,medium_airport,Bundaberg Airport,-24.90390015,152.3190002,AU,AU-QLD
YBWP,medium_airport,Weipa Airport,-12.67860031,141.9250031,AU,AU-QLD
YBWW,medium_airport,Toowoomba Wellcamp Airport,-27.558332,151.793335,AU,AU-QLD
YCAA,closed,Calga NDB,-33.403301,151.212006,AU,AU-NSW
YCAR,medium_airport,Carnarvon Airport,-24.880211,113.67174,AU,AU-WA
YCBA,medium_airport,Cobar Airport,-31.53829956,145.7940063,AU,AU-NSW
YCBB,medium_airport,Coonabarabran Airport,-31.33250046,149.2669983,AU,AU-NSW
YCBP,medium_airport,Coober Pedy Airport,-29.04000092,134.720993,AU,AU-SA
YCCA,medium_airport,Chinchilla Airport,-26.77499962,150.6170044,AU,AU-QLD
YCCY,medium_airport,Cloncurry Airport,-20.66860008,140.5039978,AU,AU-QLD
YCDU,medium_airport,Ceduna Airport,-32.13059998,133.7100067,AU,AU-SA
YCEE,medium_airport,Cleve Airport,-33.70970154,136.5050049,AU,AU-SA
YCIN,medium_airport,RAAF Base Curtin,-17.58139992,123.8280029,AU,AU-WA
YCKN,medium_airport,Cooktown Airport,-15.44470024,145.1840057,AU,AU-QLD
YCMT,medium_airport,Clermont Airport,-22.7730999,147.6210022,AU,AU-QLD
YCMU,medium_airport,Cunnamulla Airport,-28.03000069,145.621994,AU,AU-QLD
YCNM,medium_airport,Coonamble Airport,-30.98329926,148.3760071,AU,AU-NSW
YCOE,medium_airport,Coen Airport,-13.761133,143.113311,AU,AU-QLD
YCOM,medium_airport,Cooma Snowy Mountains Airport,-36.30059814,148.973999,AU,AU-NSW
YCOR,medium_airport,Corowa Airport,-35.99470139,146.3569946,AU,AU-NSW
YCRG,medium_airport,Corryong Airport,-36.18280029,147.8880005,AU,AU-VIC
YCTM,medium_airport,Cootamundra Airport,-34.62390137,148.0279999,AU,AU-NSW
YCWR,medium_airport,Cowra Airport,-33.84469986,148.6490021,AU,AU-NSW
YDBI,medium_airport,Dirranbandi Airport,-28.5916996,148.2169952,AU,AU-QLD
YDBY,medium_airport,Derby Airport,-17.37000084,123.6610031,AU,AU-WA
YDLQ,medium_airport,Deniliquin Airport,-35.55939865,144.9459991,AU,AU-NSW
YDPO,medium_airport,Devonport Airport,-41.16970062,146.4299927,AU,AU-TAS
YDYS,medium_airport,Dysart Airport,-22.62220001,148.3639984,AU,AU-QLD
YECH,medium_airport,Echuca Airport,-36.15719986,144.7619934,AU,AU-VIC
YEDH,closed,Meredith Airport,-37.88330078,144.0829926,AU,AU-VIC
YELD,medium_airport,Elcho Island Airport,-12.01939964,135.5709991,AU,AU-NT
YELR,closed,Elderslie Airport,-15.7,145.1,AU,AU-QLD
YEML,medium_airport,Emerald Airport,-23.56749916,148.1790009,AU,AU-QLD
YESP,medium_airport,Esperance Airport,-33.684399,121.822998,AU,AU-WA
YFBS,medium_airport,Forbes Airport,-33.363602,147.934998,AU,AU-NSW
YFRT,medium_airport,Forrest Airport,-30.83810043,128.1150055,AU,AU-WA
YFTZ,medium_airport,Fitzroy Crossing Airport,-18.18190002,125.5589981,AU,AU-WA
YGAT,closed,Gatton Campus Airport,-27.56040607,152.3404598,AU,AU-QLD
YGDH,medium_airport,Gunnedah Airport,-30.96109962,150.2510071,AU,AU-NSW
YGEL,medium_airport,Geraldton Airport,-28.796101,114.707001,AU,AU-WA
YGFN,medium_airport,Grafton Airport,-29.75939941,153.0299988,AU,AU-NSW
YGLA,medium_airport,Gladstone Airport,-23.869699,151.223007,AU,AU-QLD
YGLB,medium_airport,Goulburn Airport,-34.81029892,149.7259979,AU,AU-NSW
YGLI,medium_airport,Glen Innes Airport,-29.67499924,151.6889954,AU,AU-NSW
YGPT,medium_airport,Garden Point Airport,-11.40250015,130.4219971,AU,AU-NT
YGTE,medium_airport,Groote Eylandt Airport,-13.97500038,136.4600067,AU,AU-NT
YGTH,medium_airport,Griffith Airport,-34.25080109,146.0670013,AU,AU-NSW
YHAY,medium_airport,Hay Airport,-34.53139877,144.8300018,AU,AU-NSW
YHBA,medium_airport,Hervey Bay Airport,-25.31889915,152.8800049,AU,AU-QLD
YHID,medium_airport,Horn Island Airport,-10.58640003,142.2899933,AU,AU-QLD
YHLC,medium_airport,Halls Creek Airport,-18.23390007,127.6699982,AU,AU-WA
YHML,medium_airport,Hamilton Airport,-37.64889908,142.0650024,AU,AU-VIC
YHOT,medium_airport,Mount Hotham Airport,-37.04750061,147.3339996,AU,AU-VIC
YHOX,closed,Hoxton Park Airport,-33.90969849,150.852005,AU,AU-NSW
YHPN,medium_airport,Hopetoun Airport,-35.71530151,142.3600006,AU,AU-VIC
YHSM,medium_airport,Horsham Airport,-36.66970062,142.1730042,AU,AU-VIC
YIVL,medium_airport,Inverell Airport,-29.88829994,151.1439972,AU,AU-NSW
YKER,medium_airport,Kerang Airport,-35.75139999,143.9389954,AU,AU-VIC
YKII,medium_airport,King Island Airport,-39.87749863,143.878006,AU,AU-TAS
YKMP,medium_airport,Kempsey Airport,-31.07439995,152.7700043,AU,AU-NSW
YKOW,medium_airport,Kowanyama Airport,-15.48560047,141.7510071,AU,AU-QLD
YKRY,medium_airport,Kingaroy Airport,-26.5807991,151.8410034,AU,AU-QLD
YKSC,medium_airport,Kingscote Airport,-35.71390152,137.5209961,AU,AU-SA
YLCI,closed,Lancelin Airport,-31.01666667,115.3333333,AU,AU-WA
YLEC,medium_airport,Leigh Creek Airport,-30.59830093,138.4259949,AU,AU-SA
YLEO,medium_airport,Leonora Airport,-28.87809944,121.3150024,AU,AU-WA
YLHR,medium_airport,Lockhart River Airport,-12.7869,143.304993,AU,AU-QLD
YLIS,medium_airport,Lismore Airport,-28.83029938,153.2599945,AU,AU-NSW
YLPR,closed,Lake Pedder Airport,-43.04999924,146.3329926,AU,AU-TAS
YLRD,medium_airport,Lightning Ridge Airport,-29.45669937,147.9839935,AU,AU-NSW
YLRE,medium_airport,Longreach Airport,-23.43420029,144.2799988,AU,AU-QLD
YLST,medium_airport,Leinster Airport,-27.84329987,120.7030029,AU,AU-WA
YLTV,medium_airport,Latrobe Valley Airport,-38.207199,146.470001,AU,AU-VIC
YLVT,closed,"RAAF Williams, Laverton Base",-37.86360168,144.7460022,AU,AU-VIC
YMAV,medium_airport,Avalon Airport,-38.039398,144.468994,AU,AU-VIC
YMAY,medium_airport,Albury Airport,-36.06779861,146.9579926,AU,AU-NSW
YMBA,medium_airport,Mareeba Airport,-17.06920052,145.4190063,AU,AU-QLD
YMDG,medium_airport,Mudgee Airport,-32.5625,149.6109924,AU,AU-NSW
YMEK,medium_airport,Meekatharra Airport,-26.61170006,118.5479965,AU,AU-WA
YMEN,medium_airport,Melbourne Essendon Airport,-37.7281,144.901993,AU,AU-VIC
YMER,medium_airport,Merimbula Airport,-36.90859985,149.901001,AU,AU-NSW
YMES,medium_airport,RAAF Base East Sale,-38.09889984,147.1490021,AU,AU-VIC
YMGD,medium_airport,Maningrida Airport,-12.05609989,134.2339935,AU,AU-NT
YMHB,medium_airport,Hobart International Airport,-42.83610153,147.5099945,AU,AU-TAS
YMIA,medium_airport,Mildura Airport,-34.22919846,142.0859985,AU,AU-VIC
YMLT,medium_airport,Launceston Airport,-41.54529953,147.2140045,AU,AU-TAS
YMMB,medium_airport,Melbourne Moorabbin Airport,-37.97579956,145.102005,AU,AU-VIC
YMML,large_airport,Melbourne International Airport,-37.673302,144.843002,AU,AU-VIC
YMNE,medium_airport,Mount Keith Airport,-27.28639984,120.5550003,AU,AU-WA
YMOG,medium_airport,Mount Magnet Airport,-28.11610031,117.8420029,AU,AU-WA
YMOR,medium_airport,Moree Airport,-29.49889946,149.8450012,AU,AU-NSW
YMQD,closed,Mount Mcquoid NDB,-33.110001,151.138,AU,AU-NSW
YMRB,medium_airport,Moranbah Airport,-22.05780029,148.0769959,AU,AU-QLD
YMRY,medium_airport,Moruya Airport,-35.89780045,150.1439972,AU,AU-NSW
YMTG,medium_airport,Mount Gambier Airport,-37.74560165,140.7850037,AU,AU-SA
YNAR,medium_airport,Narrandera Airport,-34.70220184,146.5119934,AU,AU-NSW
YNBR,medium_airport,Narrabri Airport,-30.31920052,149.8269959,AU,AU-NSW
YNGU,medium_airport,Ngukurr Airport,-14.72280025,134.746994,AU,AU-NT
YNRM,medium_airport,Narromine Airport,-32.21469879,148.2250061,AU,AU-NSW
YNTN,medium_airport,Normanton Airport,-17.68409,141.069664,AU,AU-QLD
YNWN,medium_airport,Newman Airport,-23.4178009,119.8030014,AU,AU-WA
YOOB,closed,Cooranbong Airport,-33.06011175,151.4618969,AU,AU-NSW
YORG,medium_airport,Orange Airport,-33.38169861,149.1329956,AU,AU-NSW
YPAD,large_airport,Adelaide International Airport,-34.945,138.531006,AU,AU-SA
YPAG,medium_airport,Port Augusta Airport,-32.50690079,137.7169952,AU,AU-SA
YPAK,closed,Pakenham Airport,-38.0992059,145.4878235,AU,AU-VIC
YPBO,medium_airport,Paraburdoo Airport,-23.17110062,117.7450027,AU,AU-WA
YPDN,medium_airport,Darwin International Airport,-12.41469955,130.8769989,AU,AU-NT
YPEA,medium_airport,RAAF Base Pearce,-31.6678009,116.0149994,AU,AU-WA
YPED,medium_airport,RAAF Base Edinburgh,-34.70249939,138.6210022,AU,AU-SA
YPGV,medium_airport,Gove Airport,-12.26939964,136.8179932,AU,AU-NT
YPIR,medium_airport,Port Pirie Airport,-33.23889923,137.9949951,AU,AU-SA
YPJT,medium_airport,Perth Jandakot Airport,-32.09749985,115.8809967,AU,AU-WA
YPKA,medium_airport,Karratha Airport,-20.71220016,116.7730026,AU,AU-WA
YPKG,medium_airport,Kalgoorlie Boulder Airport,-30.7894001,121.461998,AU,AU-WA
YPKS,medium_airport,Parkes Airport,-33.13140106,148.2389984,AU,AU-NSW
YPKT,medium_airport,Port Keats Airport,-14.25,129.529007,AU,AU-NT
YPKU,medium_airport,Kununurra Airport,-15.77810001,128.7079926,AU,AU-WA
YPLC,medium_airport,Port Lincoln Airport,-34.6053009,135.8800049,AU,AU-SA
YPLE,closed,Plenty Airport,-37.72330093,145.1130066,AU,AU-VIC
YPLM,medium_airport,Learmonth Airport,-22.23559952,114.0889969,AU,AU-WA
YPMQ,medium_airport,Port Macquarie Airport,-31.43580055,152.8630066,AU,AU-NSW
YPOD,medium_airport,Portland Airport,-38.31809998,141.470993,AU,AU-VIC
YPPD,medium_airport,Port Hedland International Airport,-20.37779999,118.6259995,AU,AU-WA
YPPH,large_airport,Perth International Airport,-31.94029999,115.9670029,AU,AU-WA
YPTN,medium_airport,Tindal Airport,-14.52110004,132.378006,AU,AU-NT
YQLP,medium_airport,Quilpie Airport,-26.61219978,144.253006,AU,AU-QLD
YREN,medium_airport,Renmark Airport,-34.19639969,140.673996,AU,AU-SA
YROM,medium_airport,Roma Airport,-26.54500008,148.7749939,AU,AU-QLD
YSBK,medium_airport,Sydney Bankstown Airport,-33.92440033,150.9880066,AU,AU-NSW
YSCB,large_airport,Canberra International Airport,-35.30690002,149.1950073,AU,AU-ACT
YSCH,medium_airport,Coffs Harbour Airport,-30.32060051,153.1159973,AU,AU-NSW
YSCN,medium_airport,Camden Airport,-34.04029846,150.6869965,AU,AU-NSW
YSDU,medium_airport,Dubbo City Regional Airport,-32.21670151,148.5749969,AU,AU-NSW
YSHK,medium_airport,Shark Bay Airport,-25.89389992,113.5770035,AU,AU-WA
YSHT,medium_airport,Shepparton Airport,-36.42890167,145.3930054,AU,AU-VIC
YSMI,medium_airport,Smithton Airport,-40.83499908,145.0839996,AU,AU-TAS
YSNB,medium_airport,Snake Bay Airport,-11.42280006,130.654007,AU,AU-NT
YSNW,medium_airport,Nowra Airport,-34.94889832,150.5370026,AU,AU-NSW
YSRI,medium_airport,RAAF Base Richmond,-33.600601,150.781006,AU,AU-NSW
YSSY,large_airport,Sydney Kingsford Smith International Airport,-33.94609833,151.177002,AU,AU-NSW
YSTW,medium_airport,Tamworth Airport,-31.08390045,150.8470001,AU,AU-NSW
YSWG,medium_airport,Wagga Wagga City Airport,-35.16529846,147.4660034,AU,AU-NSW
YSWH,medium_airport,Swan Hill Airport,-35.37580109,143.5330048,AU,AU-VIC
YSWL,medium_airport,Stawell Airport,-37.07170105,142.7409973,AU,AU-VIC
YTEF,medium_airport,Telfer Airport,-21.71500015,122.2289963,AU,AU-WA
YTEM,medium_airport,Temora Airport,-34.42139816,147.5119934,AU,AU-NSW
YTGM,medium_airport,Thargomindah Airport,-27.9864006,143.8110046,AU,AU-QLD
YTIB,medium_airport,Tibooburra Airport,-29.4510994,142.0579987,AU,AU-NSW
YTMU,medium_airport,Tumut Airport,-35.26279831,148.2409973,AU,AU-NSW
YTNG,medium_airport,Thangool Airport,-24.4939003,150.576004,AU,AU-QLD
YTNK,medium_airport,Tennant Creek Airport,-19.63439941,134.1829987,AU,AU-NT
YTRE,medium_airport,Taree Airport,-31.8885994,152.5140076,AU,AU-NSW
YWAN,closed,Wallan Airport,-37.43330002,144.9880066,AU,AU-VIC
YWDH,medium_airport,Windorah Airport,-25.41309929,142.6670074,AU,AU-QLD
YWDR,closed,Winderadeen ALA,-34.9389,149.410004,AU,AU-NSW
YWGT,medium_airport,Wangaratta Airport,-36.41579819,146.3070068,AU,AU-VIC
YWHA,medium_airport,Whyalla Airport,-33.05889893,137.5140076,AU,AU-SA
YWKB,medium_airport,Warracknabeal Airport,-36.32109833,142.4190063,AU,AU-VIC
YWKH,closed,Wickham Airport,-20.67579239,117.1250725,AU,AU-WA
YWLE,closed,Williamsdale Airport,-35.55939252,149.1301775,AU,AU-NSW
YWLG,medium_airport,Walgett Airport,-30.03280067,148.1260071,AU,AU-NSW
YWLM,medium_airport,Newcastle Airport,-32.79499817,151.8339996,AU,AU-NSW
YWLU,medium_airport,Wiluna Airport,-26.62919998,120.2210007,AU,AU-WA
YWMD,closed,West Maitland Airport,-32.75669861,151.5299988,AU,AU-NSW
YWOL,medium_airport,Wollongong Airport,-34.56110001,150.7890015,AU,AU-NSW
YWRN,medium_airport,Warren Airport,-31.73329926,147.8029938,AU,AU-NSW
YWSL,medium_airport,West Sale Airport,-38.090827,146.965335,AU,AU-VIC
YWTN,medium_airport,Winton Airport,-22.36359978,143.0859985,AU,AU-QLD
YWWL,medium_airport,West Wyalong Airport,-33.93719864,147.1909943,AU,AU-NSW
YWYY,medium_airport,Wynyard Airport,-40.99890137,145.7310028,AU,AU-TAS
YXKE,closed,Kempsey Hospital Helicopter Landing Site,-31.067128,152.821257,AU,AU-NSW
YYCN,closed,Yandicoogina Airport,-22.75970078,119.2269974,AU,AU-WA
YYNG,medium_airport,Young Airport,-34.25559998,148.2480011,AU,AU-NSW
YYWE,closed,Yarrowee Airport,-37.74000168,143.753006,AU,AU-VIC
TNCA,medium_airport,Queen Beatrix International Airport,12.5014,-70.015198,AW,AW-U-A
AZ-0001,medium_airport,Zabrat Airport,40.49554222,49.97680664,AZ,AZ-BA
AZ-0007,closed,Göyçay Airport,40.62318348,47.76285231,AZ,AZ-GOY
AZ-0013,medium_airport,Sital Chay Airport,40.80731292,49.43148136,AZ,AZ-XIZ
AZ-0020,closed,Pushkino East Air Base,39.51604299,48.69063377,AZ,AZ-BIL
AZ-0021,medium_airport,Kyzylagadzh Air Base,39.00616227,48.80631208,AZ,AZ-MAS
UB12,medium_airport,Nasosnaya Air Base,40.59159851,49.55739975,AZ,AZ-SM
UB13,medium_airport,Stepanakert Air Base,39.90140152,46.78699875,AZ,AZ-XCI
UB14,medium_airport,Kyurdamir Air Base,40.27360153,48.16360092,AZ,AZ-KUR
UB18,medium_airport,Baku Kala Air Base,40.40660095,50.20019913,AZ,AZ-BA
UBBB,large_airport,Heydar Aliyev International Airport,40.46749878,50.04669952,AZ,AZ-BA
UBBG,medium_airport,Ganja Airport,40.73770142,46.31760025,AZ,AZ-GA
UBBN,medium_airport,Nakhchivan Airport,39.18880081,45.45840073,AZ,AZ-NX
UBBQ,medium_airport,Gabala International Airport,40.826667,47.7125,AZ,AZ-QAB
UG11,medium_airport,Dollyar Air Base,40.88759995,45.95700073,AZ,AZ-SKR
LQBK,medium_airport,Banja Luka International Airport,44.94139862,17.29750061,BA,BA-SRP
LQCO,closed,Coralci Airport,44.980871,15.869373,BA,BA-BIH
LQGL,closed,Glamoč Air Base,44.083894,16.813588,BA,BA-BIH
LQMO,medium_airport,Mostar International Airport,43.28290176,17.84589958,BA,BA-BIH
LQSA,large_airport,Sarajevo International Airport,43.82460022,18.3314991,BA,BA-BIH
LQTZ,medium_airport,Tuzla International Airport,44.45869827,18.72480011,BA,BA-BIH
TBPB,medium_airport,Sir Grantley Adams International Airport,13.07460022,-59.49250031,BB,BB-01
KHL,closed,Khan Jahan Ali Airport,22.6486,89.6454,BD,BD-4
VGBR,medium_airport,Barisal Airport,22.8010006,90.30120087,BD,BD-1
VGCB,medium_airport,Cox's Bazar Airport,21.45219994,91.96389771,BD,BD-2
VGEG,medium_airport,Shah Amanat International Airport,22.24959946,91.81330109,BD,BD-2
VGIS,medium_airport,Ishurdi Airport,24.15250015,89.04940033,BD,BD-5
VGJR,medium_airport,Jessore Airport,23.18379974,89.16079712,BD,BD-4
VGRJ,medium_airport,Shah Mokhdum Airport,24.43720055,88.61650085,BD,BD-5
VGSD,medium_airport,Saidpur Airport,25.75919914,88.9088974,BD,BD-5
VGSY,medium_airport,Osmany International Airport,24.96319962,91.8667984,BD,BD-6
VGZR,large_airport,Hazrat Shahjalal International Airport,23.843347,90.397783,BD,BD-3
BE-0001,closed,Froidchapelle Glider Field,50.176388,4.352222,BE,BE-WHT
BE-0002,closed,Chimay-Virelles Ulmodrome,50.11777878,4.330555916,BE,BE-WHT
BE-0007,closed,Imelda Hospital Helipad,51.01767,4.55819,BE,BE-VAN
BE-0009,closed,Jan Palfijn Hospital Heliport,51.04837,3.700179,BE,BE-VOV
EBAK,closed,Kiel heliport,51.200153,4.359219,BE,BE-VAN
EBAT,closed,Meldert heliport,50.92683,4.112962,BE,BE-VOV
EBAW,medium_airport,Antwerp International Airport (Deurne),51.18939972,4.460279942,BE,BE-VAN
EBBE,medium_airport,Beauvechain Air Base,50.75859833,4.768330097,BE,BE-WBR
EBBG,closed,Michamps Ulmodrome,50.05279922,5.79861021,BE,BE-WLX
EBBL,medium_airport,Kleine Brogel Air Base,51.168301,5.47,BE,BE-VLI
EBBO,closed,Mogimont Ulmodrome,49.866402,5.06806,BE,BE-WLX
EBBR,large_airport,Brussels Airport,50.90140152,4.48443985,BE,BE-BRU
EBBW,closed,Bassenge-Wonck ULM,50.778301,5.61667,BE,BE-WLG
EBCH,closed,Casteau / SHAPE Helipad,50.503056,3.982501,BE,BE-WHT
EBCI,large_airport,Brussels South Charleroi Airport,50.459202,4.45382,BE,BE-WHT
EBCR,closed,Chimay-Ronvaux Ulmodrome,50.2472229,5.113889217,BE,BE-WNA
EBCS,closed,Saint-Remy ULM,50.0583,4.28194,BE,BE-WHT
EBCV,medium_airport,Chièvres Air Base,50.57580185,3.83100009,BE,BE-WHT
EBDL,closed,Lanklaar heliport,51.017651,5.699703,BE,BE-VLI
EBDW,closed,Webbekom heliport,50.958132,5.064743,BE,BE-VBR
EBFD,closed,Dompire heliport,50.550835,4.996389,BE,BE-WNA
EBFN,medium_airport,Koksijde Air Base,51.09030151,2.652780056,BE,BE-VWV
EBFS,medium_airport,Florennes Air Base,50.24330139,4.645830154,BE,BE-WNA
EBGL,closed,CRC Glons Heliport,50.73973,5.5421,BE,BE-WLG
EBHE,closed,Héron-Couthuin Ulmodrome,50.53889847,5.10916996,BE,BE-WLG
EBKT,medium_airport,Wevelgem Airport,50.81719971,3.20472002,BE,BE-VWV
EBKU,closed,Kuurne Heliport,50.859402,3.25667,BE,BE-VWV
EBLB,closed,Elsenborn Air Base,50.481701,6.18194,BE,BE-WLG
EBLG,large_airport,Liège Airport,50.63740158,5.443220139,BE,BE-WLG
EBLI,closed,Lierneux ULM,50.286701,5.83639,BE,BE-WLG
EBLO,closed,Orban heliport,50.630913,5.571726,BE,BE-WLG
EBLZ,closed,Zaffelare heliport,51.131111,3.865556,BE,BE-VOV
EBMA,closed,Westmalle heliport,51.287224,4.714167,BE,BE-VAN
EBNO,closed,Outer ULM,50.85440063,3.985280037,BE,BE-VOV
EBOS,medium_airport,Ostend-Bruges International Airport,51.19889832,2.862220049,BE,BE-VWV
EBOT,closed,Oud-Turnhout,51.32355885,5.017962456,BE,BE-VAN
EBRB,closed,Beveren heliport,50.981667,3.125833,BE,BE-VWV
EBSN,closed,'S Gravenvoeren heliport,50.764771,5.786845,BE,BE-WLG
EBTE,closed,Temse heliport,51.141666,4.197222,BE,BE-VOV
EBTR,closed,Trazegnies heliport,50.476665,4.355556,BE,BE-WHT
EBZM,closed,Oombergen Airfield,50.909401,3.82667,BE,BE-VOV
DFFD,large_airport,Ouagadougou Airport,12.3532,-1.51242,BF,BF-KAD
DFOO,medium_airport,Bobo Dioulasso Airport,11.16009998,-4.33096981,BF,BF-HOU
BG-0001,closed,Livada Airport,42.456284,27.197334,BG,BG-02
BG-0002,closed,Troyanovo Airport,42.56879,27.148243,BG,BG-02
BG-0007,closed,Glozhene Airfield,43.679222,23.796246,BG,BG-06
BG-0008,closed,Kozloduy Airfield,43.763134,23.722031,BG,BG-06
BG-0010,closed,Krushovene Airfield,43.623531,24.378567,BG,BG-15
BG-0011,closed,Milkovitsa Airfield,43.634274,24.757254,BG,BG-15
BG-0014,closed,Ryakhovo Airport,43.982754,26.242744,BG,BG-18
BG-0018,closed,Irechekovo Airport,42.470249,26.733295,BG,BG-28
BG-0019,closed,Voynika Airport,42.377701,26.843519,BG,BG-28
BG-0020,closed,Yambol Airfield,42.507132,26.490739,BG,BG-28
BG-0022,closed,Staro Jelezare,42.447797,24.663927,BG,BG-16
BG-0026,closed,Polikraishte,43.199333,25.640889,BG,BG-04
BG-0034,closed,Brogovo Airstrip,44.132,22.659357,BG,BG-05
BG-0035,closed,Kapitanovtsi Airstrip,44.055815,22.878457,BG,BG-05
BG-0049,closed,SSA Kalipetrovo,44.0580505,27.2564944,BG,BG-19
BG-0054,closed,Saedinenie Airstrip,42.296957,24.555684,BG,BG-16
BG-JAM,medium_airport,Bezmer Air Base,42.45489883,26.35219955,BG,BG-28
LB19,closed,Zimnitsa Airstrip,42.600498,26.633699,BG,BG-28
LB22,closed,Stanke Dimitrov Air Base,42.311699,23.246901,BG,BG-10
LB27,closed,Podem Airstrip,43.548199,24.590401,BG,BG-15
LB32,closed,Konush Airstrip,42.072399,25.053301,BG,BG-16
LB34,closed,Stefanovo Airstrip,43.506901,27.8449,BG,BG-03
LB39,closed,Graf Ignatievo South Airport,42.263196,24.719299,BG,BG-16
LB43,closed,Dobrich Air Base,43.60960007,27.83650017,BG,BG-03
LBBG,large_airport,Burgas Airport,42.56959915,27.51519966,BG,BG-02
LBBR,closed,Ravnetz Air Base,42.52610016,27.26959991,BG,BG-02
LBGO,medium_airport,Gorna Oryahovitsa Airport,43.15140152,25.71290016,BG,BG-04
LBHS,medium_airport,Haskovo Malevo Airport,41.976398,25.5898,BG,BG-26
LBMG,medium_airport,Gabrovnitsa Air Base,43.54430008,23.27249908,BG,BG-12
LBPD,medium_airport,Plovdiv International Airport,42.067799,24.8508,BG,BG-16
LBPG,medium_airport,Graf Ignatievo Air Base,42.29040146,24.7140007,BG,BG-16
LBPL,medium_airport,Dolna Mitropoliya Air Base,43.451401,24.5028,BG,BG-15
LBPS,closed,Cheshnegirovo Air Base,42.11410141,24.99290085,BG,BG-16
LBRS,closed,Ruse Airport,43.69480133,26.05669975,BG,BG-18
LBSD,closed,Dobroslavtsi Air Base,42.81240082,23.2996006,BG,BG-23
LBSF,large_airport,Sofia Airport,42.69669342,23.41143608,BG,BG-23
LBSS,closed,Silistra Polkovnik Lambrinovo Air Base,44.055199,27.178801,BG,BG-19
LBWB,medium_airport,Balchik Air Base,43.42380142,28.18129921,BG,BG-03
LBWN,large_airport,Varna Airport,43.232101,27.8251,BG,BG-03
OBBI,large_airport,Bahrain International Airport,26.27079964,50.63359833,BH,BH-15
OBBS,medium_airport,Sheik Isa Air Base,25.91839981,50.59059906,BH,BH-14
HBBA,medium_airport,Bujumbura International Airport,-3.324019909,29.31850052,BI,BI-BJ
HBBL,closed,Nyanza-Lac Airport,-4.339434,29.598245,BI,BI-MA
DBBB,medium_airport,Cadjehoun Airport,6.357230186,2.384350061,BJ,BJ-AQ
TFFJ,medium_airport,Gustaf III Airport,17.90439987,-62.84360123,BL,BL-U-A
BM-0001,closed,RNAS Boaz Island,32.32080078,-64.8411026,BM,BM-U-A
BM-0002,closed,Naval Air Station Bermuda Annex,32.26987076,-64.85161591,BM,BM-U-A
TXKF,medium_airport,L.F. Wade International International Airport,32.36399841,-64.67870331,BM,BM-U-A
WBSB,large_airport,Brunei International Airport,4.944200039,114.9280014,BN,BN-BM
SLBJ,medium_airport,Bermejo Airport,-22.77330017,-64.31289673,BO,BO-T
SLCB,medium_airport,Jorge Wilsterman International Airport,-17.42110062,-66.17710114,BO,BO-C
SLCO,medium_airport,Capitán Aníbal Arab Airport,-11.04039955,-68.78299713,BO,BO-N
SLET,medium_airport,El Trompillo Airport,-17.81159973,-63.17150116,BO,BO-S
SLLP,medium_airport,El Alto International Airport,-16.51329994,-68.19229889,BO,BO-L
SLOR,medium_airport,Juan Mendoza Airport,-17.96260071,-67.07620239,BO,BO-O
SLPO,medium_airport,Capitan Nicolas Rojas Airport,-19.54310036,-65.72370148,BO,BO-P
SLPS,medium_airport,Capitán Av. Salvador Ogaya G. airport,-18.975301,-57.820599,BO,BO-S
SLSA,medium_airport,Santa Ana Del Yacuma Airport,-13.76220036,-65.43520355,BO,BO-B
SLSU,medium_airport,Juana Azurduy De Padilla Airport,-19.00709915,-65.28869629,BO,BO-H
SLTJ,medium_airport,Capitan Oriel Lea Plaza Airport,-21.5557003,-64.70130157,BO,BO-T
SLTR,medium_airport,Teniente Av. Jorge Henrich Arauz Airport,-14.81869984,-64.91799927,BO,BO-B
SLVM,medium_airport,Teniente Coronel Rafael Pabón Airport,-21.25519943,-63.4056015,BO,BO-T
SLVR,large_airport,Viru Viru International Airport,-17.6448,-63.135399,BO,BO-S
SLYA,medium_airport,Yacuiba Airport,-21.96089935,-63.65169907,BO,BO-T
TNCB,medium_airport,Flamingo International Airport,12.13099957,-68.26850128,BQ,BQ-U-A
TNCE,medium_airport,F. D. Roosevelt Airport,17.49650002,-62.97940063,BQ,BQ-U-A
BR-0002,closed,Alegrete,-29.80027771,-55.76305389,BR,BR-RS
BR-0003,closed,Fazenda Cana Brava,-17.41839981,-39.58179855,BR,BR-BA
BR-0004,closed,Fazenda Sao Judas Tadeu,-12.61779976,-60.9007988,BR,BR-RO
BR-0005,closed,Iguatemi,-23.63290024,-54.62969971,BR,BR-MS
BR-0006,closed,Ilha Solteira,-20.42169952,-51.33140182,BR,BR-SP
BR-0007,closed,Irati,-25.50388908,-50.6538887,BR,BR-PR
BR-0008,closed,Planura,-20.12439919,-48.6996994,BR,BR-MG
BR-0009,closed,Ponta Do Costa,-22.87190056,-42.08280182,BR,BR-RJ
BR-0010,closed,Senhor Do Bonfim,-10.47029972,-40.18280029,BR,BR-BA
BR-0011,closed,Edmar Ferreira,-18.25749969,-48.90800095,BR,BR-GO
BR-0012,closed,Maisa Airport,-5.022540092,-37.51589966,BR,BR-RN
BR-0013,closed,Fazenda Campo Oliva - Nhecolândia,-18.500999,-55.450298,BR,BR-MS
BR-0014,closed,Nova Jacuí Airport,-29.11805556,-53.21583333,BR,BR-RS
BR-0015,closed,Tucumã Airport,-6.7488,-51.1478,BR,BR-PA
BR-0020,closed,Panco 10 Heliport,-22.66670036,-43.29610062,BR,BR-RJ
BR-0029,closed,Campo Limpo Airport,-0.963,-47.3542,BR,BR-PA
BR-0030,closed,Cametá Airport,-2.2426,-49.5074,BR,BR-PA
BR-0036,closed,Cedrolância Airport,-2.538889885,-51.94670105,BR,BR-PA
BR-0041,closed,Old Rondonópolis Airport,-16.44619942,-54.66419983,BR,BR-MT
BR-0048,closed,Caçu Airport,-18.5748,-51.1607,BR,BR-GO
BR-0295,closed,Abunã Airstrip,-9.71045,-65.35793,BR,BR-RO
BR-0298,closed,Fazenda do Leão,-15.888598,-48.807736,BR,BR-GO
BR-0300,closed,Uvá Airstrip,-15.900328,-50.443026,BR,BR-GO
BR-0302,closed,Jucara Airport,-15.860782,-50.883648,BR,BR-GO
BR-0303,closed,Fazenda Santa Helena I Airstrip,-15.75612,-50.934768,BR,BR-GO
BR-0304,closed,Bandeirantes Airport,-13.690586,-50.790833,BR,BR-GO
BR-0305,closed,Rio Araguaia Southwest Airport,-12.224243,-50.636373,BR,BR-TO
BR-0463,closed,Fazenda Chapadão Airport,-12.07346,-52.825055,BR,BR-MT
BR-0471,closed,Fazenda Santa Inês Heliport,-22.176727,-46.715287,BR,BR-SP
BR-SWM,closed,Suia-Missu Airport,-11.67169952,-51.43470001,BR,BR-MT
JJD,medium_airport,Comandante Ariston Pessoa Airport,-2.906425,-40.357338,BR,BR-CE
LVB,closed,Santana do Livramento Airport,-30.8354,-55.62565,BR,BR-RS
SB03,closed,Fazenda Sao Sebastiao Airport,-12.73630047,-61.11019897,BR,BR-RO
SB04,closed,Aurea Airport,-19.28739929,-46.51169968,BR,BR-MG
SB26,closed,Jmf Airport,-10.49549961,-40.48740005,BR,BR-BA
SB29,closed,Fazenda Bela Vista Airport,-6.870940208,-48.53490067,BR,BR-TO
SBAA,medium_airport,Conceição do Araguaia Airport,-8.348349571,-49.30149841,BR,BR-PA
SBAC,medium_airport,Aracati Airport,-4.568611,-37.804722,BR,BR-CE
SBAF,medium_airport,Campo Délio Jardim de Mattos Airport,-22.875099,-43.384701,BR,BR-RJ
SBAN,medium_airport,Base Aérea Airport,-16.2292,-48.964298,BR,BR-GO
SBAQ,medium_airport,Araraquara Airport,-21.81200027,-48.13299942,BR,BR-SP
SBAR,medium_airport,Santa Maria Airport,-10.98400021,-37.07030106,BR,BR-SE
SBAT,medium_airport,Piloto Osvaldo Marques Dias Airport,-9.866389275,-56.10499954,BR,BR-MT
SBAU,medium_airport,Araçatuba Airport,-21.1413002,-50.42470169,BR,BR-SP
SBAV,closed,Usina Porto Primavera Airport,-22.52560043,-52.97219849,BR,BR-SP
SBBE,large_airport,Val de Cans/Júlio Cezar Ribeiro International Airport,-1.37925005,-48.47629929,BR,BR-PA
SBBG,medium_airport,Comandante Gustavo Kraemer Airport,-31.39049911,-54.11220169,BR,BR-RS
SBBH,medium_airport,Pampulha - Carlos Drummond de Andrade Airport,-19.8512001,-43.95059967,BR,BR-MG
SBBI,medium_airport,Bacacheri Airport,-25.40509987,-49.23199844,BR,BR-PR
SBBQ,medium_airport,Major Brigadeiro Doorgal Borges Airport,-21.2672,-43.761101,BR,BR-MG
SBBR,large_airport,Presidente Juscelino Kubistschek International Airport,-15.86916733,-47.92083359,BR,BR-DF
SBBT,medium_airport,Chafei Amsei Airport,-20.58449936,-48.59410095,BR,BR-SP
SBBU,medium_airport,Bauru Airport,-22.34499931,-49.05379868,BR,BR-SP
SBBV,medium_airport,Atlas Brasil Cantanhede Airport,2.841388941,-60.6922226,BR,BR-RR
SBBW,medium_airport,Barra do Garças Airport,-15.86130047,-52.38890076,BR,BR-MT
SBBZ,medium_airport,Umberto Modiano Airport,-22.770881,-41.96308,BR,BR-RJ
SBCA,medium_airport,Cascavel Airport,-25.00029945,-53.50080109,BR,BR-PR
SBCC,medium_airport,Cachimbo Airport,-9.333939552,-54.9654007,BR,BR-PA
SBCF,large_airport,Tancredo Neves International Airport,-19.62444305,-43.9719429,BR,BR-MG
SBCG,medium_airport,Campo Grande Airport,-20.46870041,-54.67250061,BR,BR-MS
SBCH,medium_airport,Serafin Enoss Bertaso Airport,-27.13419914,-52.65660095,BR,BR-SC
SBCI,medium_airport,Brig. Lysias Augusto Rodrigues Airport,-7.320439816,-47.45869827,BR,BR-MA
SBCJ,medium_airport,Carajás Airport,-6.115277767,-50.00138855,BR,BR-PA
SBCM,medium_airport,Diomício Freitas Airport,-28.72444344,-49.42139053,BR,BR-SC
SBCO,medium_airport,Canoas Air Force Base,-29.945928,-51.144413,BR,BR-RS
SBCP,medium_airport,Bartolomeu Lisandro Airport,-21.69829941,-41.30170059,BR,BR-RJ
SBCR,medium_airport,Corumbá International Airport,-19.01194382,-57.67139053,BR,BR-MS
SBCT,large_airport,Afonso Pena Airport,-25.5284996,-49.17580032,BR,BR-PR
SBCV,medium_airport,Caravelas Airport,-17.65229988,-39.25310135,BR,BR-BA
SBCX,medium_airport,Hugo Cantergiani Regional Airport,-29.19709969,-51.1875,BR,BR-RS
SBCY,medium_airport,Marechal Rondon Airport,-15.65289974,-56.11669922,BR,BR-MT
SBCZ,medium_airport,Cruzeiro do Sul Airport,-7.599909782,-72.76950073,BR,BR-AC
SBDN,medium_airport,Presidente Prudente Airport,-22.17510033,-51.42459869,BR,BR-SP
SBEG,medium_airport,Eduardo Gomes International Airport,-3.038609982,-60.04970169,BR,BR-AM
SBEK,medium_airport,Jacareacanga Airport,-6.233160019,-57.77690125,BR,BR-PA
SBFI,medium_airport,Cataratas International Airport,-25.60027885,-54.48500061,BR,BR-PR
SBFL,large_airport,Hercílio Luz International Airport,-27.67027855,-48.55250168,BR,BR-SC
SBFN,medium_airport,Fernando de Noronha Airport,-3.85493,-32.423302,BR,BR-PE
SBFU,closed,Furnas Airport,-20.702801,-46.3353,BR,BR-MG
SBFZ,medium_airport,Pinto Martins International Airport,-3.776279926,-38.5326004,BR,BR-CE
SBGL,large_airport,Rio Galeão – Tom Jobim International Airport,-22.80999947,-43.25055695,BR,BR-RJ
SBGM,medium_airport,Guajará-Mirim Airport,-10.78639984,-65.28479767,BR,BR-RO
SBGO,medium_airport,Santa Genoveva Airport,-16.63199997,-49.22069931,BR,BR-GO
SBGR,large_airport,Guarulhos - Governador André Franco Montoro International Airport,-23.43555641,-46.47305679,BR,BR-SP
SBGW,medium_airport,Guaratinguetá Airport,-22.79159927,-45.20479965,BR,BR-SP
SBHT,medium_airport,Altamira Airport,-3.253910065,-52.25400162,BR,BR-PA
SBIC,medium_airport,Itacoatiara Airport,-3.12725997,-58.48120117,BR,BR-AM
SBIH,medium_airport,Itaituba Airport,-4.242340088,-56.0007019,BR,BR-PA
SBIL,medium_airport,Bahia - Jorge Amado Airport,-14.81599998,-39.03319931,BR,BR-BA
SBIP,medium_airport,Usiminas Airport,-19.47069931,-42.48759842,BR,BR-MG
SBIZ,medium_airport,Prefeito Renato Moreira Airport,-5.53129,-47.459999,BR,BR-MA
SBJF,medium_airport,Francisco de Assis Airport,-21.79150009,-43.38679886,BR,BR-MG
SBJP,medium_airport,Presidente Castro Pinto International Airport,-7.145833015,-34.94861221,BR,BR-PB
SBJV,medium_airport,Lauro Carneiro de Loyola Airport,-26.22450066,-48.79740143,BR,BR-SC
SBKG,medium_airport,Presidente João Suassuna Airport,-7.26992,-35.8964,BR,BR-PB
SBKP,medium_airport,Viracopos International Airport,-23.00740051,-47.1344986,BR,BR-SP
SBLJ,medium_airport,Lages Airport,-27.78210068,-50.28150177,BR,BR-SC
SBLN,medium_airport,Lins Airport,-21.66399956,-49.73049927,BR,BR-SP
SBLO,medium_airport,Governador José Richa Airport,-23.33359909,-51.13010025,BR,BR-PR
SBLP,medium_airport,Bom Jesus da Lapa Airport,-13.26210022,-43.40810013,BR,BR-BA
SBMA,medium_airport,João Correa da Rocha Airport,-5.368589878,-49.13800049,BR,BR-PA
SBMC,medium_airport,Minaçu Airport,-13.5491,-48.195301,BR,BR-GO
SBMD,medium_airport,Monte Dourado Airport,-0.889839,-52.6022,BR,BR-PA
SBME,medium_airport,Macaé Airport,-22.34300041,-41.76599884,BR,BR-RJ
SBMG,medium_airport,Regional de Maringá - Sílvio Nane Junior Airport,-23.4794445,-52.01222229,BR,BR-PR
SBMK,medium_airport,Mário Ribeiro Airport,-16.70689964,-43.81890106,BR,BR-MG
SBML,medium_airport,Frank Miloye Milenkowichi–Marília State Airport,-22.19689941,-49.92639923,BR,BR-SP
SBMN,medium_airport,Ponta Pelada Airport,-3.146039963,-59.98630142,BR,BR-AM
SBMO,medium_airport,Zumbi dos Palmares Airport,-9.510809898,-35.79169846,BR,BR-AL
SBMQ,medium_airport,Alberto Alcolumbre Airport,0.050664,-51.07220078,BR,BR-AP
SBMS,medium_airport,Dix-Sept Rosado Airport,-5.201920032,-37.36429977,BR,BR-RN
SBMT,medium_airport,Campo de Marte Airport,-23.50909996,-46.63779831,BR,BR-SP
SBMY,medium_airport,Manicoré Airport,-5.81137991,-61.27830124,BR,BR-AM
SBNF,medium_airport,Ministro Victor Konder International Airport,-26.879999,-48.651402,BR,BR-SC
SBNM,medium_airport,Santo Ângelo Airport,-28.2817,-54.169102,BR,BR-RS
SBNT,medium_airport,Augusto Severo Airport,-5.911419868,-35.24769974,BR,BR-RN
SBOI,medium_airport,Oiapoque Airport,3.855489969,-51.7969017,BR,BR-AP
SBPA,medium_airport,Salgado Filho Airport,-29.99440002,-51.17139816,BR,BR-RS
SBPC,medium_airport,Poços de Caldas - Embaixador Walther Moreira Salles Airport,-21.84300041,-46.56790161,BR,BR-MG
SBPF,medium_airport,Lauro Kurtz Airport,-28.243999,-52.326599,BR,BR-RS
SBPJ,medium_airport,Brigadeiro Lysias Rodrigues Airport,-10.29150009,-48.35699844,BR,BR-TO
SBPK,medium_airport,João Simões Lopes Neto International Airport,-31.718399,-52.327702,BR,BR-RS
SBPL,medium_airport,Senador Nilo Coelho Airport,-9.362409592,-40.56909943,BR,BR-PE
SBPN,medium_airport,Porto Nacional Airport,-10.719402,-48.3997,BR,BR-TO
SBPP,medium_airport,Ponta Porã Airport,-22.5496006,-55.70259857,BR,BR-MS
SBPS,medium_airport,Porto Seguro Airport,-16.438601,-39.080898,BR,BR-BA
SBPV,medium_airport,Governador Jorge Teixeira de Oliveira Airport,-8.709289551,-63.90230179,BR,BR-RO
SBQV,medium_airport,Vitória da Conquista Airport,-14.86279964,-40.86309814,BR,BR-BA
SBRB,medium_airport,Plácido de Castro Airport,-9.868888855,-67.89805603,BR,BR-AC
SBRF,medium_airport,Guararapes - Gilberto Freyre International Airport,-8.126489639,-34.92359924,BR,BR-PE
SBRJ,medium_airport,Santos Dumont Airport,-22.91049957,-43.1631012,BR,BR-RJ
SBRP,medium_airport,Leite Lopes Airport,-21.13638878,-47.77666855,BR,BR-SP
SBRQ,closed,Sao Roque Airport,-23.5170002,-47.11700058,BR,BR-SP
SBSC,medium_airport,Santa Cruz Air Force Base,-22.9324,-43.719101,BR,BR-RJ
SBSG,large_airport,Governador Aluízio Alves International Airport,-5.768056,-35.376111,BR,BR-RN
SBSJ,medium_airport,Professor Urbano Ernesto Stumpf Airport,-23.22920036,-45.86149979,BR,BR-SP
SBSL,medium_airport,Marechal Cunha Machado International Airport,-2.58536005,-44.23410034,BR,BR-MA
SBSM,medium_airport,Santa Maria Airport,-29.711399,-53.688202,BR,BR-RS
SBSN,medium_airport,Maestro Wilson Fonseca Airport,-2.424721956,-54.78583145,BR,BR-PA
SBSP,large_airport,Congonhas Airport,-23.62611008,-46.65638733,BR,BR-SP
SBSR,medium_airport,Prof. Eribelto Manoel Reino State Airport,-20.8166008,-49.40650177,BR,BR-SP
SBST,medium_airport,Base Aérea de Santos Airport,-23.92805672,-46.29972076,BR,BR-SP
SBSV,large_airport,Deputado Luiz Eduardo Magalhães International Airport,-12.9086113,-38.32249832,BR,BR-BA
SBTA,medium_airport,Base de Aviação de Taubaté Airport,-23.0401001,-45.51599884,BR,BR-SP
SBTB,medium_airport,Trombetas Airport,-1.489599943,-56.39680099,BR,BR-PA
SBTE,medium_airport,Senador Petrônio Portela Airport,-5.059939861,-42.82350159,BR,BR-PI
SBTF,medium_airport,Tefé Airport,-3.382940054,-64.72409821,BR,BR-AM
SBTK,medium_airport,Tarauacá Airport,-8.155260086,-70.78330231,BR,BR-AC
SBTL,medium_airport,Telêmaco Borba Airport,-24.31780052,-50.65159988,BR,BR-PR
SBTS,medium_airport,Tiriós Airport,2.22347,-55.946098,BR,BR-PA
SBTT,medium_airport,Tabatinga Airport,-4.255670071,-69.93579865,BR,BR-AM
SBTU,medium_airport,Tucuruí Airport,-3.786010027,-49.72029877,BR,BR-PA
SBUA,medium_airport,São Gabriel da Cachoeira Airport,-0.14835,-66.9855,BR,BR-AM
SBUF,medium_airport,Paulo Afonso Airport,-9.40087986,-38.25059891,BR,BR-BA
SBUG,medium_airport,Rubem Berta Airport,-29.78219986,-57.03820038,BR,BR-RS
SBUL,medium_airport,Ten. Cel. Aviador César Bombonato Airport,-18.883612,-48.225277,BR,BR-MG
SBUR,medium_airport,Mário de Almeida Franco Airport,-19.76472282,-47.96611023,BR,BR-MG
SBVG,medium_airport,Major Brigadeiro Trompowsky Airport,-21.59009933,-45.47330093,BR,BR-MG
SBVH,medium_airport,Brigadeiro Camarão Airport,-12.69439983,-60.09830093,BR,BR-RO
SBVT,medium_airport,Eurico de Aguiar Salles Airport,-20.258057,-40.286388,BR,BR-ES
SBYS,medium_airport,Campo Fontenelle Airport,-21.98460007,-47.33480072,BR,BR-SP
SBZM,medium_airport,Presidente Itamar Franco Airport,-21.513086,-43.173069,BR,BR-MG
SDAB,closed,Maju Heliport,-21.093611,-50.481387,BR,BR-SP
SDAL,closed,Fazenda Alamo Airport,-21.815201,-47.900678,BR,BR-SP
SDAV,closed,Auxiliar I Heliport,-23.631945,-46.713614,BR,BR-SP
SDBI,closed,Aeroclube Airport,-21.281944,-50.326942,BR,BR-SP
SDBJ,closed,Jimenez Heliport,-23.709443,-47.425556,BR,BR-SP
SDBT,closed,Banco de Boston Heliport,-23.544701,-46.635557,BR,BR-SP
SDBZ,closed,KMS Heliport,-23.505276,-46.844723,BR,BR-SP
SDCB,closed,Refinaria Presidente Bernardes Heliport,-23.887777,-46.427776,BR,BR-SP
SDCC,closed,Country Club Orgabil Airport,-21.22,-50.41,BR,BR-SP
SDCH,closed,Band Heliport,-23.642735,-46.735668,BR,BR-SP
SDCK,closed,Condomínio Edifício Itaquere Heliport,-23.582104,-46.681976,BR,BR-SP
SDDC,closed,Panco 10 Heliport,-22.66670036,-43.29610062,BR,BR-RJ
SDDF,closed,Sul América Seguros Heliport,-23.607779,-46.700558,BR,BR-SP
SDDU,closed,Fazenda Santa Carolina,-22.13100052,-48.31930161,BR,BR-SP
SDDW,closed,Delmar Heliport,-23.921702,-46.213271,BR,BR-SP
SDEB,closed,Ericson do Brasil Heliport,-23.061943,-45.782501,BR,BR-SP
SDEE,closed,Rancho Villela Airport,-23.570278,-48.863335,BR,BR-SP
SDFI,closed,Fazenda Itaquere Airport,-21.6546,-48.2663,BR,BR-SP
SDFY,closed,Fazenda Ipameri Airport,-21.63139,-50.808887,BR,BR-SP
SDFZ,closed,Vivo Barra Funda Heliport,-23.509166,-46.68111,BR,BR-SP
SDGF,closed,Fazenda Fartura Airport,-22.367222,-49.946945,BR,BR-SP
SDIJ,closed,Panco 13 Heliport,-22.75639915,-42.89030075,BR,BR-RJ
SDIN,closed,Clube do Céu Airport,-22.997497,-43.40139,BR,BR-RJ
SDJE,closed,Avibrás II Heliport,-23.34583282,-45.82500076,BR,BR-SP
SDLM,closed,Ipua Faz Alianca Airport,-20.50499916,-48.0442009,BR,BR-SP
SDLT,closed,Fazenda Santa Rita Airport,-22.19939995,-50.37360001,BR,BR-SP
SDNC,closed,Panco V Heliport,-23.03440094,-45.58810043,BR,BR-SP
SDOS,closed,Issac Heliport,-23.90940094,-46.16719818,BR,BR-SP
SDPF,closed,Portoferreir Han Airport,-21.87420082,-47.47389984,BR,BR-SP
SDPJ,closed,Panco VII Heliport,-23.53,-46.49,BR,BR-SP
SDQA,closed,Centro Empresarial Nações Unidas - Torre Oeste Heliport,-23.609722,-46.697224,BR,BR-SP
SDQF,closed,Ita Heliport,-23.7,-46.83,BR,BR-SP
SDSY,closed,Panco III Heliport,-22.7133007,-43.69250107,BR,BR-RJ
SDTL,closed,Telesp Heliport,-23.52083206,-46.67805481,BR,BR-SP
SDUG,closed,Usina Sao Geraldo Airport,-21.13080025,-48.06639862,BR,BR-SP
SDVK,closed,Viação Cometa Móoca Heliport,-23.56083298,-46.60499954,BR,BR-SP
SDZY,medium_airport,Zona da Mata Regional Airport,-21.5130558,-43.17305756,BR,BR-MG
SIAB,closed,Leda Mello Resende Airport,-21.3719,-45.4949,BR,BR-MG
SIAC,closed,Hospital de Guaruz Heliport,-21.740833,-41.311943,BR,BR-RJ
SIEI,closed,8º Batalhão da Polícia Militar Heliport,-26.30638886,-48.86000061,BR,BR-SC
SIJQ,closed,Ryhad Palace Hotel Heliport,-25.5825,-49.400276,BR,BR-PR
SIMB,closed,Monumental Business Heliport,-23.61456,-46.569151,BR,BR-SP
SION,closed,Rio Negro Airport,-11.64444447,-54.07138824,BR,BR-MT
SIRW,closed,Fazenda Serra Vermelha Airport,-6.872778,-45.302776,BR,BR-MA
SITI,closed,Madenorte Airport,-2.318888903,-52.91444397,BR,BR-PA
SIWD,closed,Fazenda Cinco Estrelas Airport,-8.363611221,-58.10499954,BR,BR-MT
SIWH,closed,Fazenda Frigorífico Atlas Airport,-9.4125,-50.425556,BR,BR-PA
SIXT,closed,Girassol Heliport,-23.87890053,-45.44720078,BR,BR-SP
SJEE,closed,Fazenda Ourissanga Airport,-20.42027778,-51.44527817,BR,BR-MS
SJEO,closed,Sylvio Quadros Mercês Heliport,-12.97916698,-38.47333145,BR,BR-BA
SJJD,closed,Jijoca De Jericoacoara Airport,-2.888889,-40.474167,BR,BR-CE
SJJI,closed,Novo Horizonte Airport,-26.24916649,-51.90333176,BR,BR-PR
SJKK,closed,Coca-Cola Heliport,-18.896666,-48.242222,BR,BR-MG
SJOB,closed,Estáncia Parque Atibaia Heliport,-23.08029938,-46.58190155,BR,BR-SP
SJOD,closed,Alô Brasil Heliport,-22.970556,-47.298889,BR,BR-SP
SJPR,closed,Andrieli Base Operacional Airport,-15.5797224,-54.40777969,BR,BR-MT
SJPT,closed,Petrobrás - Refinaria de Capuava Heliport,-23.65277863,-46.47999954,BR,BR-SP
SJTC,medium_airport,Bauru - Arealva Airport,-22.16685914,-49.05028667,BR,BR-SP
SJXU,closed,Alphaville Gramado Heliport,-29.383612,-50.888332,BR,BR-RS
SJYC,closed,AHE Peixe Angical Airport,-12.2031002,-48.46969986,BR,BR-TO
SJZA,closed,Capão Alto Airport,-30.67639,-51.525276,BR,BR-RS
SNBK,closed,Bocaíuva Airport,-17.1331,-43.815605,BR,BR-MG
SNCC,closed,Calçoene Airport,2.514722,-50.952202,BR,BR-AP
SNDG,closed,São Domingos Airport,-5.573609829,-44.43170166,BR,BR-MA
SNDY,closed,Dores Do Indaia Airport,-19.4571991,-45.58440018,BR,BR-MS
SNDZ,closed,Via Brasil Heliport,-19.84194374,-43.96611023,BR,BR-MG
SNEP,closed,Eunápolis Airport,-16.329201,-39.5769,BR,BR-BA
SNFC,closed,Fazenda Forquilha Airport,-19.8516674,-46.70999908,BR,BR-MG
SNFK,closed,Francisco Sá Airport,-16.437573,-43.469187,BR,BR-MG
SNGM,closed,Guimarães Airport,-2.100276,-44.617221,BR,BR-MA
SNHA,closed,Itabuna Airport,-14.81050015,-39.29040146,BR,BR-BA
SNMH,closed,Magalhaes de Almeida Airport,-4.476961,-43.889902,BR,BR-MA
SNOA,closed,CoroatÃ¡ Airport,-4.141109943,-44.11560059,BR,BR-MA
SNPG,closed,Porto Grande Airport,0.866388977,-51.40060043,BR,BR-AP
SNPH,closed,Fazenda Do Cantagalo Airport,-15.39589977,-44.14519882,BR,BR-MG
SNRT,closed,Prata Airport,-19.33309937,-48.94469833,BR,BR-MS
SNSK,closed,Santa Rita Do Sapucai Airport,-22.27330017,-45.63940048,BR,BR-MS
SNSN,closed,São Raimundo Nonato Airport,-9.03,-42.68,BR,BR-PI
SNVW,closed,Fazenda São João do Guaporé Airport,-13.993,-60.07226,BR,BR-MT
SNWL,closed,Fazenda Ranchinho Airport,-18.833332,-51.791111,BR,BR-GO
SNWX,closed,Newton Heliport,-22.53888893,-47.41944504,BR,BR-SP
SSAC,closed,Fazenda Santana Airport,-19.7080555,-55.42111206,BR,BR-MS
SSCZ,closed,Tenoar Airport,-18.811943,-52.639168,BR,BR-MS
SSDH,closed,Fazenda Caranday Airport,-20.205557,-57.063332,BR,BR-MS
SSEA,closed,Spessato Aviacao Agricola Airport,-22.21590042,-54.7419014,BR,BR-MS
SSFT,closed,Fazenda Thoma Airport,-21.65920067,-53.51110077,BR,BR-MS
SSFV,closed,Fazenda Recreio 3 Airport,-20.20750046,-53.77939987,BR,BR-MS
SSGL,closed,Fazenda Falcão Airport,-15.39944444,-54.18111111,BR,BR-MT
SSGQ,closed,Fazenda São Francisco Airport,-19.38083267,-53.04166794,BR,BR-MS
SSMA,closed,Marrecão Airport,-27.07,-48.89,BR,BR-SC
SSNE,closed,Fazenda São Benedito Airport,-18.42,-56.46,BR,BR-MS
SSPZ,closed,Fazenda Princesa do Sul Airport,-23.77109909,-54.67779922,BR,BR-MS
SSQK,closed,Viaoeste - Castelo III Heliport,-23.506069,-46.855314,BR,BR-SP
SSSF,closed,Fazenda San Marino Airport,-20.10219955,-52.44390106,BR,BR-MS
SSVR,closed,Volta Redonda Airport,-22.4978,-44.085,BR,BR-RJ
SSWB,closed,Fazenda Sorte Grande Airport,-24.61,-52.36,BR,BR-PR
SSWD,closed,Irai Vicente Dut Airport,-27.1935997,-53.2364006,BR,BR-RS
SSXU,closed,Fazenda Fartura Airport,-3.159407,-48.543434,BR,BR-PA
SSZW,medium_airport,Ponta Grossa Airport - Comandante Antonio Amilton Beraldo,-25.1847,-50.1441,BR,BR-PR
SWBS,closed,Brasileia Airport,-11.01690006,-68.73390198,BR,BR-AC
SWEJ,closed,Fazenda Marazul Airport,-16.53890038,-55.91830063,BR,BR-MT
SWEQ,closed,Fazenda Marazul III Airport,-16.59140015,-55.98669815,BR,BR-MT
SWES,closed,ESAT Aerotáxi Heliport,-15.791,-47.8948,BR,BR-DF
SWEV,closed,Fazenda Piraim Airport,-16.25169945,-56.08750153,BR,BR-MT
SWFJ,closed,Alcimar Leitão Airport,-8.165579796,-70.35299683,BR,BR-AC
SWGN,medium_airport,Araguaína Airport,-7.22787,-48.240501,BR,BR-TO
SWGR,closed,Alto Garças Airport,-16.92,-53.54,BR,BR-MT
SWJO,closed,Fazenda São Paulo - Retiro Santa Maria Airport,-15.14,-51.254444,BR,BR-GO
SWKK,closed,Old Cacoal Airport,-11.43,-61.48,BR,BR-RO
SWLE,closed,Pontes e Lacerda Airport,-15.231111,-59.34111,BR,BR-MT
SWNP,closed,Novo Paraiso Airport,1.238190055,-60.48630142,BR,BR-RR
SWNU,closed,Nova Mutum Airport,-13.82,-56.1,BR,BR-MT
SWOQ,closed,Fazenda Surucucu Airport,-16.743335,-47.991669,BR,BR-GO
SWRF,closed,Fazenda Toloza Airport,-13.183611,-57.983891,BR,BR-MT
SWSS,closed,Fazenda Silmar Airport,-16.165,-60.114445,BR,BR-MT
SWTM,closed,Fazenda Santos Reis Airport,-16.26666641,-59.15000153,BR,BR-MT
SWUO,closed,Fazenda Santo André Airport,-13.68638897,-55.98722076,BR,BR-MT
SWXF,closed,Chácara Córrego Fundo Airport,-15.59,-56.05,BR,BR-MT
SWYD,closed,Cotia Foods S/A Heliport,-23.61916733,-46.88194275,BR,BR-SP
SWYF,closed,Minas Empreendimentos Heliport,-19.901388,-44.06472,BR,BR-MG
SWYL,closed,Autódromo José Carlos Pace Heliport,-23.7033,-46.6995,BR,BR-SP
SWZU,closed,Fazenda Rodoserv I Airport,-22.472779,-52.595833,BR,BR-MS
TUZ,closed,Tucuma Airport,-3.967000008,-66.43299866,BR,BR-AM
URB,closed,Urubupunga Airport,-20.77709961,-51.56480026,BR,BR-SP
BS-0001,closed,Fowl Cay Airstrip,24.27074329,-76.5409863,BS,BS-EX
BS-0006,closed,Castaway Cay (Gorda Cay) Airstrip,26.091254,-77.540721,BS,BS-U-A
MYAB,medium_airport,Clarence A. Bain Airport,24.28770065,-77.68460083,BS,BS-KB
MYAF,medium_airport,Andros Town Airport,24.69790077,-77.79560089,BS,BS-NB
MYAK,medium_airport,Congo Town Airport,24.158701,-77.589798,BS,BS-KB
MYAM,medium_airport,Leonard M Thompson International Airport,26.5114,-77.083503,BS,BS-MH
MYAN,medium_airport,San Andros Airport,25.05380058,-78.0490036,BS,BS-NB
MYAP,medium_airport,Spring Point Airport,22.44179916,-73.97090149,BS,BS-AC
MYAT,medium_airport,Treasure Cay Airport,26.74530029,-77.39129639,BS,BS-MH
MYBC,medium_airport,Chub Cay Airport,25.41710091,-77.88089752,BS,BS-NB
MYBG,medium_airport,Great Harbour Cay Airport,25.7383,-77.840103,BS,BS-NB
MYBS,medium_airport,South Bimini Airport,25.69989967,-79.26470184,BS,BS-BI
MYCA,medium_airport,Arthur's Town Airport,24.6294,-75.673797,BS,BS-CI
MYCB,medium_airport,New Bight Airport,24.3153,-75.452301,BS,BS-CI
MYCI,medium_airport,Colonel Hill Airport,22.74559975,-74.18240356,BS,BS-AC
MYEF,medium_airport,Exuma International Airport,23.56259918,-75.87799835,BS,BS-EX
MYEG,medium_airport,George Town Airport,23.4666996,-75.78170013,BS,BS-EX
MYEH,medium_airport,North Eleuthera Airport,25.47489929,-76.6835022,BS,BS-HI
MYEM,medium_airport,Governor's Harbour Airport,25.28470039,-76.33100128,BS,BS-GH
MYEN,medium_airport,Normans Cay Airport,24.59429932,-76.82019806,BS,BS-EX
MYER,medium_airport,Rock Sound Airport,24.89507873,-76.17688179,BS,BS-RS
MYES,medium_airport,Staniel Cay Airport,24.16909981,-76.43910217,BS,BS-EX
MYGF,medium_airport,Grand Bahama International Airport,26.55870056,-78.69560242,BS,BS-FP
MYIG,medium_airport,Inagua Airport,20.97500038,-73.66690063,BS,BS-IN
MYLD,medium_airport,Deadman's Cay Airport,23.17900085,-75.09359741,BS,BS-LI
MYLR,medium_airport,Hard Bargain Airport,23.011194,-74.905889,BS,BS-LI
MYLS,medium_airport,Stella Maris Airport,23.582317,-75.268621,BS,BS-LI
MYMM,medium_airport,Mayaguana Airport,22.379499,-73.013494,BS,BS-MG
MYNN,large_airport,Lynden Pindling International Airport,25.039,-77.466202,BS,BS-NP
MYRD,medium_airport,Duncan Town Airport,22.18180084,-75.72949982,BS,BS-RI
MYSM,medium_airport,San Salvador Airport,24.06329918,-74.52400208,BS,BS-SR
MYZ2,closed,Cape Eleuthera Airport,24.7861,-76.2962,BS,BS-RS
VQGP,medium_airport,Gelephu Airport,26.88456,90.46412,BT,BT-31
VQPR,medium_airport,Paro Airport,27.40320015,89.42459869,BT,BT-11
BW-0010,closed,Riverside Southeast Airport,-25.337175,23.514179,BW,BW-KG
BW-0032,closed,Xakanaxa Old Airport,-19.21495,23.439105,BW,BW-NW
BW-0050,closed,Mapoka Airport,-20.532004,27.609445,BW,BW-NE
FBFT,medium_airport,Francistown Airport,-21.1595993,27.47450066,BW,BW-NE
FBJW,medium_airport,Jwaneng Airport,-24.60230064,24.69099998,BW,BW-SO
FBKE,medium_airport,Kasane Airport,-17.83289909,25.16239929,BW,BW-NW
FBML,closed,Molepolole Airport,-24.38944444,25.49861111,BW,BW-KW
FBMN,medium_airport,Maun Airport,-19.97260094,23.43110085,BW,BW-NW
FBNW,closed,Gaborone Notwane Airport,-24.68300056,25.93300056,BW,BW-SE
FBSK,large_airport,Sir Seretse Khama International Airport,-24.555201,25.9182,BW,BW-SE
FBSN,medium_airport,Sua Pan Airport,-20.5534,26.115801,BW,BW-CE
FBSP,medium_airport,Selebi Phikwe Airport,-22.0583,27.8288,BW,BW-CE
FBSR,closed,Serowe Airport,-22.42329979,26.75670052,BW,BW-CE
FBTE,closed,Tshane Airport,-24.0170002,21.88299942,BW,BW-KG
BY-0001,medium_airport,Balbasovo Air Base,54.43999863,30.29669952,BY,BY-VI
BY-0002,closed,Bobr Air Base,54.375,29.37669945,BY,BY-MI
BY-0003,medium_airport,Bobrovichi Air Base,52.27830124,29.36000061,BY,BY-HO
BY-0006,medium_airport,Osovtsy Air Base,52.55699921,24.88400078,BY,BY-BR
BY-0007,closed,Bykhau Air Base,53.52000046,30.20000076,BY,BY-MA
BY-0017,closed,Kokhanovichi Airport,55.85734,28.09827,BY,BY-MI
BY-0018,closed,Bozhki Airstrip,55.816719,28.025859,BY,BY-MI
BY-0019,closed,Zheludok Heliport,53.598206,24.9719,BY,BY-HR
BY-0026,closed,Komsomolskaya Airstrip,53.213143,27.36075,BY,BY-MI
BY-0030,closed,Selhozaviatsii,52.75557,24.462681,BY,BY-HR
BY-1095,closed,Postavy Air Base,55.116699,26.7617,BY,BY-VI
BY-1210,closed,Maladzyechna Air Base,54.24829865,26.87170029,BY,BY-MI
BY-3111,closed,Zhurzhevo Air Base,55.255001,30.2467,BY,BY-VI
BY-7836,closed,Smarhon Air Base,54.52330017,26.30669975,BY,BY-HR
UMBB,medium_airport,Brest Airport,52.108299,23.8981,BY,BY-BR
UMDU,closed,Shchuchyn Air Base,53.598206,24.763414,BY,BY-HR
UMGG,medium_airport,Gomel Airport,52.52700043,31.01670074,BY,BY-HO
UMII,medium_airport,Vitebsk Vostochny Airport,55.12649918,30.34959984,BY,BY-VI
UMMA,medium_airport,Baranavichi Air Base,53.09999847,26.04999924,BY,BY-BR
UMMG,medium_airport,Hrodna Airport,53.60200119,24.05380058,BY,BY-HR
UMMM,closed,Minsk 1 Airport,53.864498,27.5397,BY,BY-MI
UMMS,large_airport,Minsk National Airport,53.88249969,28.03070068,BY,BY-MI
UMNB,medium_airport,Babruisk Air Base,53.105,29.205,BY,BY-MA
UMOO,medium_airport,Mogilev Airport,53.95489883,30.0951004,BY,BY-MA
BZ-0004,closed,Consejo Shores Airport,18.456596,-88.305407,BZ,BZ-CZL
BZ-0005,closed,Gold Button Airport,17.915341,-88.743301,BZ,BZ-OW
BZ-0006,closed,Augustine Airstrip,16.970298,-88.987916,BZ,BZ-CY
BZ-BGK,medium_airport,Big Creek Airport,16.51936913,-88.40791321,BZ,BZ-SC
BZ-CUK,medium_airport,Caye Caulker Airport,17.73469925,-88.03250122,BZ,BZ-BZ
BZ-CYC,medium_airport,Caye Chapel Airport,17.70079994,-88.04109955,BZ,BZ-BZ
BZ-CZH,medium_airport,Corozal Municipal Airport,18.38220024,-88.41190338,BZ,BZ-CZL
BZ-DGA,medium_airport,Dangriga Airport,16.98250961,-88.23098755,BZ,BZ-SC
BZ-PLJ,medium_airport,Placencia Airport,16.53695679,-88.36151123,BZ,BZ-SC
BZ-PND,medium_airport,Punta Gorda Airport,16.10239983,-88.8082962,BZ,BZ-TOL
BZ-SJX,medium_airport,Sartaneja Airport,18.35610008,-88.13079834,BZ,BZ-CZL
BZ-SPR,medium_airport,San Pedro Airport,17.9139,-87.9711,BZ,BZ-CY
BZ-TZA,medium_airport,Belize City Municipal Airport,17.51638985,-88.19444275,BZ,BZ-BZ
MZBZ,large_airport,Philip S. W. Goldson International Airport,17.53910065,-88.30819702,BZ,BZ-BZ
CA-0001,closed,Lac-des-Loups Airport,46.98220062,-76.48249817,CA,CA-QC
CA-0003,closed,RCAF Station Buttress,50.23609924,-105.5479965,CA,CA-SK
CA-0004,closed,RCAF Station Aylmer,42.80590057,-80.94419861,CA,CA-ON
CA-0005,closed,RCAF Station Lincoln Park,51.00939941,-114.1330032,CA,CA-AB
CA-0006,closed,RCAF Station Carberry,49.87210083,-99.39730072,CA,CA-MB
CA-0007,closed,RCAF Station Fingal (No. 4 Bombing and Gunnery School),42.68009949,-81.32730103,CA,CA-ON
CA-0008,closed,RCAF Station Mossbank,49.92169952,-105.8730011,CA,CA-SK
CA-0009,closed,Hamlin Airport,52.88000107,-108.2890015,CA,CA-SK
CA-0010,closed,Maple Airport,43.84335652,-79.52607036,CA,CA-ON
CA-0011,closed,King City Airport,43.90579987,-79.55960083,CA,CA-ON
CA-0012,closed,RCAF Station Pearce,49.80899811,-113.4449997,CA,CA-AB
CA-0013,closed,RCAF Pennfield Ridge,45.12659836,-66.69300079,CA,CA-NB
CA-0014,closed,RCAF Station Dafoe,51.93209839,-104.5670013,CA,CA-SK
CA-0016,closed,Dog Creek Airport,51.626598,-122.255997,CA,CA-BC
CA-0017,closed,Agnes Lake Airport,55.80867101,-112.5084114,CA,CA-AB
CA-0018,closed,Aishihik Airport,61.65052643,-137.4882317,CA,CA-YT
CA-0019,closed,Albert Bay Airport,69.6333313,-103.6166687,CA,CA-NU
CA-0020,closed,Algar Tower Airport,56.11666489,-111.7666702,CA,CA-AB
CA-0021,closed,Amber Tower Airport,59.17971032,-119.4685936,CA,CA-AB
CA-0022,closed,Anama Bay-Dauphin River Airport,51.96267323,-98.1368351,CA,CA-MB
CA-0023,closed,Anderson Point Airport,68.21666718,-87.91666412,CA,CA-NU
CA-0024,closed,Anderson Ranch Airport,53.45000076,-123.5666656,CA,CA-BC
CA-0025,closed,Anglemont Airport,50.96840035,-119.1668129,CA,CA-BC
CA-0026,closed,Arthur North Airport,43.883333,-80.533333,CA,CA-ON
CA-0027,closed,Asbestos Airport,45.79425,-71.995339,CA,CA-QC
CA-0028,closed,"Sundance Guest Ranch ""C"" Airport",50.66669846,-121.2669983,CA,CA-BC
CA-0029,closed,Crystal Lake Airport,48.71670151,-91.26670074,CA,CA-ON
CA-0030,closed,Atkinson Point Airport,69.93333435,-131.4166718,CA,CA-NT
CA-0031,closed,Austin Airport,49.93333435,-98.91666412,CA,CA-MB
CA-0032,closed,Aylmer Airport,42.79999924,-80.94999695,CA,CA-ON
CA-0033,closed,Baskatong Lake Airport,46.777728,-75.881453,CA,CA-QC
CA-0034,closed,Basnett Airport,57.36666489,-119.8166656,CA,CA-AB
CA-0035,closed,Batnuni Airport,53.38333511,-124.1333313,CA,CA-BC
CA-0036,closed,Bay d'Espoir Airport,47.958261,-55.854492,CA,CA-NL
CA-0037,closed,Bear River Airport,64.8174013,-134.264431,CA,CA-YT
CA-0038,closed,Beatton River Airport,57.379861,-121.411645,CA,CA-BC
CA-0039,closed,Beaulieu River Airport,62.45000076,-113.0333328,CA,CA-NT
CA-0040,closed,Beausejour Airport,50.13697495,-96.20821953,CA,CA-MB
CA-0041,closed,Beaver River Airport,59.971508,-124.203272,CA,CA-BC
CA-0042,closed,Beaverdell Airport,49.45724598,-119.0880632,CA,CA-BC
CA-0044,closed,Belledune Airport,47.90000153,-65.83333588,CA,CA-NB
CA-0045,closed,Bennett Field Airport,65.03093035,-124.6666718,CA,CA-NT
CA-0046,closed,Berland Airport,54.09368115,-117.4076271,CA,CA-AB
CA-0047,closed,Bernard Harbour Airport,68.78333282,-114.8333359,CA,CA-NU
CA-0048,closed,Bethany Airport,50.34999847,-99.75,CA,CA-MB
CA-0049,closed,Big Creek Airport,51.72649651,-123.0271339,CA,CA-BC
CA-0050,closed,Bird Airport,56.5,-94.21666718,CA,CA-MB
CA-0051,closed,Bison Airport,57.074941,-116.52606,CA,CA-AB
CA-0052,closed,Wallace Lake Airport,51.00835444,-95.42192459,CA,CA-MB
CA-0053,closed,Blissville Airport,45.605633,-66.543678,CA,CA-NB
CA-0054,closed,Blow River Airport,68.7751033,-137.4553585,CA,CA-YT
CA-0055,closed,Bonavista Airport,48.566931,-53.057238,CA,CA-NL
CA-0056,closed,Borden Airport,44.26666641,-79.91666412,CA,CA-ON
CA-0057,closed,Boston Bar Airport,49.98333359,-121.5,CA,CA-BC
CA-0058,closed,Bray Island Airport,69.26667023,-77.34999847,CA,CA-NU
CA-0059,closed,Brazeau Airport,52.96666718,-115.8666687,CA,CA-AB
CA-0060,closed,Bredenbury Airport,50.93333435,-102.0500031,CA,CA-SK
CA-0061,closed,Bristol Field Airport,47.31013998,-53.99024963,CA,CA-NL
CA-0063,closed,Buchans Airport,48.84782954,-56.83888435,CA,CA-NL
CA-0064,closed,Buckingham Airport,45.63333511,-75.40000153,CA,CA-QC
CA-0065,closed,Budworm City Airport,47.529434,-66.629677,CA,CA-NB
CA-0066,closed,Buffalo Creek Airport,56.6121839,-113.0691433,CA,CA-AB
CA-0067,closed,Burrage Creek Airport,57.26666641,-130.25,CA,CA-BC
CA-0068,closed,Burtch Airport,43.05314751,-80.27615547,CA,CA-ON
CA-0070,closed,Byron Bay Airport,68.75623384,-109.0887451,CA,CA-NU
CA-0071,closed,Cabin Creek Airport,53.75,-118.3333359,CA,CA-AB
CA-0072,closed,Cabin Airport,59.269517,-121.626025,CA,CA-BC
CA-0073,closed,Calgary (Children's Hospital) Heliport,51.033333,-114.116669,CA,CA-AB
CA-0074,closed,Campbellford Airport,44.40000153,-77.76670074,CA,CA-ON
CA-0075,closed,Terra Mining Airport,65.609152,-118.141592,CA,CA-NT
CA-0076,closed,Cape Christian Airport,70.51667023,-68.30000305,CA,CA-NU
CA-0077,closed,Cape Dyer Airport,66.59,-61.5732,CA,CA-NU
CA-0078,closed,Cape Hooper Airport,68.46666718,-66.83333588,CA,CA-NU
CA-0079,closed,Cape Jones Airport,54.63333511,-79.69999695,CA,CA-QC
CA-0080,closed,Cape Parry Airport,70.16666412,-124.6833344,CA,CA-NT
CA-0081,closed,Cape Young Airport,68.93333435,-116.9333344,CA,CA-NU
CA-0082,closed,Carberry Airport,49.84999847,-99.31666565,CA,CA-MB
CA-0083,closed,Carrot River Airport,53.28333282,-103.5500031,CA,CA-SK
CA-0084,closed,Casey Airport,47.93333435,-74.09999847,CA,CA-QC
CA-0085,closed,Casino Airport,62.75,-138.7833405,CA,CA-YT
CA-0086,closed,Cavendish Airport,50.79999924,-110.4499969,CA,CA-AB
CA-0087,closed,Charlotte Lake Airport,52.15000153,-125.2666702,CA,CA-BC
CA-0089,closed,Chilko Lake (Wilderness Ranch) Airport,51.66666794,-124.1500015,CA,CA-BC
CA-0090,closed,Chipmunk Airport,56.71666718,-127.8333359,CA,CA-BC
CA-0091,closed,Chunamon Airport,56.23333359,-124.3833313,CA,CA-BC
CA-0092,closed,Churchill Falls Airport,53.63333511,-64.48332977,CA,CA-NL
CA-0093,closed,Clearwater Airport,51.65000153,-120.0833359,CA,CA-BC
CA-0094,closed,Clifton Point Airport,69.21666718,-118.6333313,CA,CA-NU
CA-0095,closed,Clinton Creek Airport,64.475545,-140.741748,CA,CA-YT
CA-0096,closed,Clinton Point Airport,69.58333588,-120.75,CA,CA-NU
CA-0097,closed,Coal Valley Airport,53.08333206,-116.8166656,CA,CA-AB
CA-0098,closed,Comet Airport,58.54999924,-119.0500031,CA,CA-AB
CA-0099,closed,Cormorant Lake Airport,54.23333359,-100.5999985,CA,CA-MB
CA-0100,closed,Covey Hill Airport,45.016001,-73.6888,CA,CA-QC
CA-0101,closed,Cowpar Airport,55.95000076,-110.5,CA,CA-AB
CA-0102,closed,Crater Airport,58.70000076,-118.6833344,CA,CA-AB
CA-0103,closed,Crater Airport,49.91666794,-99.80000305,CA,CA-MB
CA-0104,closed,Crawfish Lake Airport,49.70000076,-126.7666702,CA,CA-BC
CA-0105,closed,Cree Lake Airport,57.36666489,-107.1333313,CA,CA-SK
CA-0106,closed,Crooked Lake Airport,72.66666412,-98.5,CA,CA-NU
CA-0107,closed,Cullaton Lake Airport,61.31666565,-98.5,CA,CA-NU
CA-0108,closed,Culloden Airport,42.883333,-80.866669,CA,CA-ON
CA-0109,closed,Cypre River Airport,49.25,-125.9333344,CA,CA-BC
CA-0110,closed,Cap-de-la-Madeleine,46.38056946,-72.53002167,CA,CA-QC
CA-0111,closed,Davis Inlet Airport,55.90000153,-60.90000153,CA,CA-NL
CA-0112,closed,Deception Airport,62.11231445,-74.55468178,CA,CA-QC
CA-0113,closed,Dewar Lakes Airport,68.627546,-71.125832,CA,CA-NU
CA-0114,closed,Discovery Airport,63.18333435,-113.9000015,CA,CA-NT
CA-0115,closed,RCAF Station Caron,50.46023615,-105.8124161,CA,CA-SK
CA-0116,closed,Douglastown Airport,47.03333282,-65.53333282,CA,CA-NB
CA-0117,closed,Drake Point Airport,76.40000153,-108.5333328,CA,CA-NU
CA-0118,closed,Drake Point Airport,76.46666718,-108.7333298,CA,CA-NU
CA-0119,closed,Driftwood Airport,55.81666565,-126.4166641,CA,CA-BC
CA-0121,closed,Fort Franklin Airport,65.1925,-123.430002,CA,CA-NT
CA-0122,closed,Eaglenest Airport,57.59999847,-129.4166718,CA,CA-BC
CA-0123,closed,Eaglesham Airport,55.8094,-117.8924,CA,CA-AB
CA-0124,closed,East Templeton Airport,45.499401,-75.547401,CA,CA-QC
CA-0125,closed,Bremner Airport,53.583302,-113.233002,CA,CA-AB
CA-0126,closed,Namao Airport,53.68330002,-113.4670029,CA,CA-AB
CA-0127,closed,Edmunston (Fraser Papers Inc) Heliport,47.36666489,-68.33333588,CA,CA-NB
CA-0128,closed,Eltrut Airport,48.96666718,-92.3666687,CA,CA-ON
CA-0129,closed,Esker Lake Airport,61.65000153,-74.66666412,CA,CA-QC
CA-0130,closed,Espanola (East) Airport,46.26666641,-81.73332977,CA,CA-ON
CA-0131,closed,Espanola (West) Airport,46.25,-81.84999847,CA,CA-ON
CA-0132,closed,Finbow Airport,57.266663,-125.449997,CA,CA-BC
CA-0133,closed,Foggy Tower Airport,58.68333435,-114.9666672,CA,CA-AB
CA-0134,closed,Fort George Airport,53.81666565,-79,CA,CA-QC
CA-0135,closed,Fort McMurray Heliport,56.66666794,-111.3333359,CA,CA-AB
CA-0136,closed,Fort Nelson (Forestry) Heliport,58.79999924,-122.7333298,CA,CA-BC
CA-0137,closed,Mobil Sierra Airport,58.83330154,-121.4000015,CA,CA-BC
CA-0138,closed,Tompkins Mile 54 Airport,56.29999924,-121,CA,CA-BC
CA-0139,closed,Fredericton (Forestry Centre) Heliport,45.93333435,-66.66666412,CA,CA-NB
CA-0140,closed,Gagnon Airport,51.95000076,-68.1333313,CA,CA-QC
CA-0141,closed,Germansen Landing Airport,55.767439,-124.691757,CA,CA-BC
CA-0142,closed,Gift Lake Airport,55.86666489,-115.8000031,CA,CA-AB
CA-0143,closed,Gladman Point Airport,68.662677,-97.796,CA,CA-NU
CA-0144,closed,Gladstone (Costella Field) Airport,50.20000076,-99.05000305,CA,CA-MB
CA-0145,closed,Glendon Airport,54.26666641,-111.1333313,CA,CA-AB
CA-0146,closed,Gold Creek Airport,54.83333206,-118.6500015,CA,CA-AB
CA-0147,closed,Gold River Airport,49.81666565,-126.0666656,CA,CA-BC
CA-0148,closed,Goose River Airport,54.73333359,-116.3166656,CA,CA-AB
CA-0149,closed,Gore's Landing Airport,44.11666489,-78.25,CA,CA-ON
CA-0150,closed,Grand Valley Airport,43.983334,-80.266671,CA,CA-ON
CA-0151,closed,Grant Point Airport,68.40000153,-98.65000153,CA,CA-NU
CA-0152,closed,Gun Lake Airport,50.90000153,-122.8499985,CA,CA-BC
CA-0153,closed,Hagersville Airport (No. 16 SFTS),42.92679712,-80.1207161,CA,CA-ON
CA-0154,closed,Halifax (South Battery) Heliport,44.64373499,-63.56770188,CA,CA-NS
CA-0155,closed,Hart River Airport,64.66666412,-136.8333282,CA,CA-YT
CA-0156,closed,Hartney Airport,49.45000076,-100.5166702,CA,CA-MB
CA-0157,closed,Haskett Airport,49,-97.90000153,CA,CA-MB
CA-0158,closed,Henik Lake Airport,61.65000153,-97.3666687,CA,CA-NU
CA-0160,closed,Highwood Livestock Auction Airport,50.65000153,-113.8499985,CA,CA-AB
CA-0161,closed,King Ranch Airport,50.59999847,-114.0830002,CA,CA-AB
CA-0162,closed,Hodgeville Airport,50.08333206,-106.9666672,CA,CA-SK
CA-0163,closed,Hornes Gulch Airport,47.833159,-67.906783,CA,CA-NB
CA-0164,closed,Horton River Airport,70.01667023,-126.9499969,CA,CA-NT
CA-0165,closed,Hotchkiss Airport,57.31666565,-118.9166641,CA,CA-AB
CA-0166,closed,House Mountain Airport,55.03333282,-115.5166702,CA,CA-AB
CA-0167,closed,Howick Airport,45.200003,-73.883331,CA,CA-QC
CA-0168,closed,Indian Head Airport,50.53333282,-103.5999985,CA,CA-SK
CA-0169,closed,Indian River Airport,44.39828317,-78.13905716,CA,CA-ON
CA-0170,closed,Inuvik Townsite Airport,68.3666687,-133.75,CA,CA-NT
CA-0171,closed,Isachsen Airport,78.786517,-103.523051,CA,CA-NU
CA-0172,closed,Jedney Airport,57.21666718,-122.2166672,CA,CA-BC
CA-0173,closed,Jellicoe Airport,49.66666794,-87.58333588,CA,CA-ON
CA-0174,closed,Jenny Lind Island Airport,68.6568,-101.735,CA,CA-NU
CA-0175,closed,Johanson Lake Airport,56.59999847,-126.1999969,CA,CA-BC
CA-0176,closed,Johnson Point Airport,72.76667023,-118.5,CA,CA-NT
CA-0177,closed,Kakwa Airport,54.420713,-118.982128,CA,CA-AB
CA-0179,closed,Kaybob South Airport,54.11666489,-116.6166687,CA,CA-AB
CA-0180,closed,Keane Tower Airport,58.31666565,-110.2833328,CA,CA-AB
CA-0181,closed,Keg River Airport,57.73333359,-117.6166687,CA,CA-AB
CA-0182,closed,Keg Tower Airport,57.63333511,-118.3499985,CA,CA-AB
CA-0183,closed,Keith Bay Airport,68.25,-88.15000153,CA,CA-NU
CA-0184,closed,Kelvington (Mennie Field) Airport,52.16666794,-103.5999985,CA,CA-SK
CA-0185,closed,Kenakskaniss Airport,50.13333511,-89.44999695,CA,CA-ON
CA-0186,closed,Ketza River Airport,61.84999847,-132.3000031,CA,CA-YT
CA-0188,closed,Kilometer 176 Airport,56.86666489,-106.1500015,CA,CA-SK
CA-0189,closed,Kimsquit Airport,52.90000153,-127.0833359,CA,CA-BC
CA-0190,closed,Kincaid Airport,49.66666794,-107.0500031,CA,CA-SK
CA-0191,closed,King Christian Airport,77.76667023,-101.0333328,CA,CA-NU
CA-0192,closed,Kivitoo Airport,67.93333435,-64.8666687,CA,CA-NU
CA-0193,closed,Klappan River Airport,57.78333282,-129.6166687,CA,CA-BC
CA-0194,closed,Kluakaz Airport,57.11666489,-128.6666718,CA,CA-BC
CA-0195,closed,Kluatanton Airport,56.83333206,-128.1333313,CA,CA-BC
CA-0196,closed,Komakuk Beach Airport,69.596348,-140.172507,CA,CA-YT
CA-0197,closed,Kotcho Airport,59.08333206,-121.25,CA,CA-BC
CA-0198,closed,La Grande Airport,53.58333206,-77.68333435,CA,CA-QC
CA-0199,closed,Lac Éon Airport,51.85250092,-63.27679825,CA,CA-QC
CA-0201,closed,Lady Franklin Point Airport,68.47531262,-113.224411,CA,CA-NU
CA-0202,closed,Laforge-1 Airport,54.09999847,-72.53333282,CA,CA-QC
CA-0203,closed,Lambert Creek Tower Airport,58.033333,-114.133331,CA,CA-AB
CA-0204,closed,Lemoray Airport,55.54999924,-122.4666672,CA,CA-BC
CA-0205,closed,Moose Jaw Westair - Old Airport,50.43299866,-105.5419998,CA,CA-SK
CA-0206,closed,Liard Construction Airport,65.08333588,-138.3666687,CA,CA-YT
CA-0207,closed,Liard River Airport,59.51666641,-126.3666687,CA,CA-BC
CA-0208,closed,Little Salmon Airport,62.18333435,-134.8833313,CA,CA-YT
CA-0209,closed,Livingstone Airport,61.36666489,-134.3666687,CA,CA-YT
CA-0210,closed,Lodgepole Airport,53.08333206,-115.3000031,CA,CA-AB
CA-0211,closed,Longstaff Bluff Airport,68.932,-75.282,CA,CA-NU
CA-0212,closed,Lougheed Island Airport,77.44999695,-105.0833359,CA,CA-NU
CA-0213,closed,Lupin Airport,65.76667023,-111.25,CA,CA-NU
CA-0214,closed,Lytton Airport,50.245,-121.5683,CA,CA-BC
CA-0215,closed,Macfarland Airport,47.58333206,-68.33333588,CA,CA-NB
CA-0216,closed,Mackar Inlet Airport,68.34999847,-85.73332977,CA,CA-NU
CA-0217,closed,Magda Lake Airport,72.41666412,-82.41666412,CA,CA-NU
CA-0218,closed,Magundy Airport,62.172118,-133.98308,CA,CA-YT
CA-0219,closed,Mahatta River Airport,50.45000076,-127.8000031,CA,CA-BC
CA-0220,closed,Mallard Airport,65.81666565,-140.25,CA,CA-YT
CA-0221,closed,Malloch Dome Airport,78.21666718,-101.0500031,CA,CA-NU
CA-0222,closed,Marilla Airport,53.66666794,-125.7666702,CA,CA-BC
CA-0223,closed,Marten Hills Airport,55.42472076,-113.6080551,CA,CA-AB
CA-0224,closed,Maryfield Airport,49.833333,-101.51666,CA,CA-SK
CA-0225,closed,Matheson Point Airport,68.81666565,-95.28333282,CA,CA-NU
CA-0226,closed,Meander River Airport,59,-117.6666641,CA,CA-AB
CA-0227,closed,Mesilinka River Airport,56.09999847,-124.4000015,CA,CA-BC
CA-0228,closed,Mica Creek Airport,51.83333206,-118.6333313,CA,CA-BC
CA-0229,closed,Middle Stewiacke Airport,45.21666718,-63.15000153,CA,CA-NS
CA-0230,closed,Midway Airport,67.23332977,-135.3000031,CA,CA-NT
CA-0231,closed,Mile 102 Dempster Highway Airport,65.1166687,-138.3333282,CA,CA-YT
CA-0232,closed,Mile 129 Mackenzie Highway Airport,62.5,-116.4833298,CA,CA-NT
CA-0233,closed,Mile 134 Airport,51.86666489,-65.71666718,CA,CA-QC
CA-0234,closed,Mile 203 Dempster Highway Airport,66.1166687,-137.25,CA,CA-YT
CA-0235,closed,Mile 36 Airport,50.58333206,-66.03333282,CA,CA-QC
CA-0236,closed,Mile 80 Airport,51.16666794,-65.71666718,CA,CA-QC
CA-0237,closed,East Barriere Lake,51.2536697,-119.8636293,CA,CA-BC
CA-0238,closed,Minaki Airport,49.96666718,-94.69999695,CA,CA-ON
CA-0239,closed,Minto Airport,62.59999847,-136.8666687,CA,CA-YT
CA-0240,closed,Moh Creek Airport,50.53333282,-125.0666656,CA,CA-BC
CA-0241,closed,Moose Lake Airport,53.70625896,-100.3439713,CA,CA-MB
CA-0242,closed,Moose Valley Airport,56.73333359,-126.6500015,CA,CA-BC
CA-0243,closed,Mosque Airport,56.48333359,-127.5333328,CA,CA-BC
CA-0244,closed,Mossbank Airport,49.91666794,-105.8666687,CA,CA-SK
CA-0245,closed,Mould Bay Airport,76.2392,-119.3216,CA,CA-NT
CA-0246,closed,Aquila Field Airport,44.16669846,-79.36669922,CA,CA-ON
CA-0247,closed,Mount Flett Airport,60.66666794,-123.5999985,CA,CA-NT
CA-0248,closed,Mount Nansen Airport,62.01666641,-137.0666656,CA,CA-YT
CA-0250,closed,Mountain River Airport,65.681531,-128.826921,CA,CA-NT
CA-0251,closed,Muddy Lake Airport,58.20000076,-132.3166656,CA,CA-BC
CA-0252,closed,Murdochville Airport,48.95000076,-65.3666687,CA,CA-QC
CA-0253,closed,Muskegsagagen Lake Airport,51.38333511,-91.16666412,CA,CA-ON
CA-0254,closed,Mégantic Airport,45.588055,-70.871665,CA,CA-QC
CA-0255,closed,Namew Lake Airport,54.20000076,-102.0500031,CA,CA-SK
CA-0256,closed,Nanook Airport,57.13333511,-91.6166687,CA,CA-MB
CA-0257,closed,Nanton (Green Farms) Airport,50.38333511,-113.6666641,CA,CA-AB
CA-0258,closed,New Zealand Airport,46.40000153,-62.31666565,CA,CA-PE
CA-0259,closed,Nicholson Peninsula Airport,69.94999695,-128.8833313,CA,CA-NT
CA-0260,closed,Nimpo Lake Airport,52.31666565,-125.2333298,CA,CA-BC
CA-0261,closed,Nipisi Airport,55.86666489,-115.1666641,CA,CA-AB
CA-0262,closed,RCAF Station Davidson,51.24769974,-105.8799973,CA,CA-SK
CA-0263,closed,Nokomis Airport,51.5,-104.9666672,CA,CA-SK
CA-0264,closed,Nordegg River Airport,52.71666718,-115.7166672,CA,CA-AB
CA-0265,closed,Eastmain Mine Airstrip,52.28249359,-72.06619263,CA,CA-QC
CA-0266,closed,North Monetville Skypark Airport,46.193956,-80.312096,CA,CA-ON
CA-0267,closed,Notikewin Airport,56.849998,-118.616669,CA,CA-AB
CA-0268,closed,Obonga Airport,50.01666641,-89.31666565,CA,CA-ON
CA-0269,closed,Ogilvie Airport,65.34999847,-138.4666595,CA,CA-YT
CA-0270,closed,Orangeville Airport,43.900002,-80.016671,CA,CA-ON
CA-0271,closed,Oriskany Airport,47.48333359,-73.65000153,CA,CA-QC
CA-0272,closed,Otter Lakes Airport,56.70000076,-115.9333344,CA,CA-AB
CA-0273,closed,Panny Airport,57.20000076,-114.6666641,CA,CA-AB
CA-0274,closed,Paradise River Airport,53.43,-57.23333359,CA,CA-NL
CA-0275,closed,Parrsboro Airport,45.41666794,-64.33333588,CA,CA-NS
CA-0276,closed,Parson Airport,51.08333206,-116.6333313,CA,CA-BC
CA-0277,closed,Paulson Airport,51.13333511,-99.8666687,CA,CA-MB
CA-0278,closed,Three Creeks Airport,56.41669846,-116.8830032,CA,CA-AB
CA-0279,closed,Pearce Point Airport,69.80000305,-122.6666641,CA,CA-NT
CA-0280,closed,Pearce Airport,49.84999847,-113.25,CA,CA-AB
CA-0281,closed,Pelly Bay (DEW Site) Airport,68.438,-89.602,CA,CA-NU
CA-0282,closed,Pelly Lake Airport,66.06666565,-101.0833359,CA,CA-NU
CA-0283,closed,Pennfield Ridge Airport,45.13333511,-66.68333435,CA,CA-NB
CA-0284,closed,Perrault Falls Airport,50.36666489,-93.1166687,CA,CA-ON
CA-0285,closed,Petrel Airport,49.96666718,-99.34999847,CA,CA-MB
CA-0286,closed,Petrolia Airport,42.883333,-82.116669,CA,CA-ON
CA-0287,closed,Pineimuta Municipal Airport,51.670727,-98.740325,CA,CA-MB
CA-0288,closed,Polaris (Little Cornwallis Island) Airport,75.3833313,-96.93333435,CA,CA-NU
CA-0289,closed,Ponteix Airport,49.73333359,-107.4833298,CA,CA-SK
CA-0290,closed,Porcupine Airport,66.31666565,-140.1333313,CA,CA-YT
CA-0291,closed,Port Albert Airport,43.88333511,-81.69999695,CA,CA-ON
CA-0292,closed,Port Eliza Airport,49.88333511,-127.1500015,CA,CA-BC
CA-0293,closed,Port Radium Airstrip,66.103,-117.9347,CA,CA-NT
CA-0294,closed,Port-Cartier Airport,50.049999,-66.883331,CA,CA-QC
CA-0295,closed,Pottageville Airport,44,-79.6333313,CA,CA-ON
CA-0296,closed,Kencor Airport,50.91669846,-114.2669983,CA,CA-AB
CA-0298,closed,Princess Airport,50.68333435,-111.5333328,CA,CA-AB
CA-0299,closed,Prophet River Airport,57.96666718,-122.7833328,CA,CA-BC
CA-0300,closed,Prospect Lake Airport,50.58333206,-94.26667023,CA,CA-ON
CA-0301,closed,Purtuniq Airport,61.81666565,-73.94999695,CA,CA-QC
CA-0302,closed,Quatam River Airport,50.38333511,-124.9333344,CA,CA-BC
CA-0303,closed,Mobil 1128 Airport,58.4912262,-118.9195328,CA,CA-AB
CA-0304,closed,Ram Falls Airport,52.086813,-115.856092,CA,CA-AB
CA-0305,closed,Raspberry Airport,56.04999924,-124.2166672,CA,CA-BC
CA-0306,closed,Rea Point Airport,75.3666687,-105.7166672,CA,CA-NU
CA-0308,closed,Redvers Airport,49.58333206,-101.6833344,CA,CA-SK
CA-0309,closed,Renous Airport,46.950003,-66.566666,CA,CA-NB
CA-0310,closed,Richardson Airport,57.88333511,-111.0166702,CA,CA-AB
CA-0311,closed,Risks Creek Airport,51.96666718,-122.5166702,CA,CA-BC
CA-0312,closed,Kingston Airfield,44.251099,-76.503403,CA,CA-ON
CA-0313,closed,Rivers Airport,50.01005576,-100.3139305,CA,CA-MB
CA-0314,closed,Rivipere Ouelle Airport,47.450003,-69.98333,CA,CA-QC
CA-0315,closed,Rodney Airport,42.579731,-81.684705,CA,CA-ON
CA-0316,closed,Ross Bay Junction Airport,53.03333282,-66.25,CA,CA-NL
CA-0317,closed,Ross Point Airport,68.59999847,-111.1333313,CA,CA-NU
CA-0318,closed,Round Hill Airport,55.29999924,-111.9833298,CA,CA-AB
CA-0319,closed,Rowley Airport,69.06666565,-79.08333588,CA,CA-NU
CA-0320,closed,Russell Lake Airport,62.84999847,-116,CA,CA-NT
CA-0321,closed,Réservoir Gouin (Pourvoirie Oasis) Airport,48.46666718,-74.66666412,CA,CA-QC
CA-0322,closed,Saglek Airport,58.475119,-62.655373,CA,CA-NL
CA-0324,closed,Saltspring Island Airport,48.76666641,-123.4666672,CA,CA-BC
CA-0325,closed,Sarcpa Lake Airport,68.55000305,-83.33333588,CA,CA-NU
CA-0326,closed,Saulteaux Airport,54.91666794,-114.7833328,CA,CA-AB
CA-0327,closed,Savant Lake Airport,50.20000076,-90.65000153,CA,CA-ON
CA-0328,closed,Sawmill Bay Airport,65.73333,-118.916664,CA,CA-NT
CA-0329,closed,Scar Creek Airport,51.18333435,-125.0333328,CA,CA-BC
CA-0330,closed,Scud River Airport,57.28333282,-131.8333282,CA,CA-BC
CA-0331,closed,Shekilie Airport,59.25,-119.3333359,CA,CA-AB
CA-0332,closed,Shell 13 Airport,57.26666641,-111.4833298,CA,CA-AB
CA-0333,closed,Shepherd Bay Airport,68.80000305,-93.41666412,CA,CA-NU
CA-0334,closed,Sherard Bay Airport,76.08333588,-108.5,CA,CA-NU
CA-0335,closed,Sherman Meadows Airport,54.28333282,-119.8333359,CA,CA-AB
CA-0336,closed,Sheslay Airport,58.26666641,-131.7833405,CA,CA-BC
CA-0338,closed,Shingle Point Airport,68.9296,-137.2355,CA,CA-YT
CA-0339,closed,Shunda Airport,52.48333359,-115.75,CA,CA-AB
CA-0340,closed,Sikanni Chief Airport,57.08333206,-122.5999985,CA,CA-BC
CA-0341,closed,Simcoe Airport,42.852813,-80.287143,CA,CA-ON
CA-0342,closed,Simpson Lake Airport,68.58985138,-91.94758606,CA,CA-NU
CA-0343,closed,Skocdopole Farms Airport,51.75,-113.883331,CA,CA-AB
CA-0344,closed,Smeaton Airport,53.48333359,-104.8000031,CA,CA-SK
CA-0345,closed,Smith River Airport,59.90000153,-126.4333344,CA,CA-BC
CA-0346,closed,Smoky City Airport,54.75,-118.5833359,CA,CA-AB
CA-0347,closed,Smoky Tower Airport,54.40000153,-118.2833328,CA,CA-AB
CA-0348,closed,Snag Airport,62.36666489,-140.3999939,CA,CA-YT
CA-0349,closed,Squanga Lake Airport,60.48659,-133.458067,CA,CA-YT
CA-0350,closed,St-Gabriel-De-Brandon Airport,46.34999847,-73.3833313,CA,CA-QC
CA-0351,closed,St-Joseph-De-St-Hyacinths Airport,45.61666489,-72.93333435,CA,CA-QC
CA-0352,closed,St-Prosper (Pel) Airport,46.21666718,-70.5,CA,CA-QC
CA-0353,closed,St-Simon-De-Bagot Airport,45.68333435,-72.83333588,CA,CA-QC
CA-0354,closed,St. Aldwyn Airport,50.38333511,-107.7666702,CA,CA-SK
CA-0355,closed,St. Anthony Airport,51.48333359,-55.81666565,CA,CA-NL
CA-0356,closed,St. Leonard (Cyr) Airport,47.18333435,-67.90000153,CA,CA-NB
CA-0357,closed,Stave Lake Airport,49.467727,-122.225691,CA,CA-BC
CA-0358,closed,Ste-Anne-De-Sorel Airport,46.06666565,-72.98332977,CA,CA-QC
CA-0359,closed,Sainte-Croix Airport,46.6325826,-71.78934574,CA,CA-QC
CA-0360,closed,Chucker Farm Airport,45.43330002,-74.25,CA,CA-QC
CA-0361,closed,Steeper Airport,53.13333511,-117.1166687,CA,CA-AB
CA-0362,closed,Stewart Lake Airport,64.33333588,-125.3833313,CA,CA-NT
CA-0363,closed,Stobart Creek Airport,51.46666718,-122.8333359,CA,CA-BC
CA-0364,closed,Stokes Point Airport,69.33333588,-138.75,CA,CA-YT
CA-0365,closed,Strandberg Creek Airport,56.01666641,-124.2333298,CA,CA-BC
CA-0366,closed,Stratford Airport,43.316666,-81.033333,CA,CA-ON
CA-0367,closed,Strathmore (Duke) Airport,51.01666641,-113.6333313,CA,CA-AB
CA-0368,closed,McClain Farm Airport,51.04999924,-113.5,CA,CA-AB
CA-0369,closed,Sturdee Valley Airport,57.20000076,-127.0833359,CA,CA-BC
CA-0370,closed,Sturdee Airport,51.20000076,-102.3666687,CA,CA-SK
CA-0371,closed,Sturgeon Falls Airport,46.34999847,-79.96666718,CA,CA-ON
CA-0372,closed,Sturgeon Landing Airport,54.29175,-101.821902,CA,CA-SK
CA-0373,closed,Sturt Point Airport,68.80000305,-103.3333359,CA,CA-NU
CA-0374,closed,Sweetgrass Landing Airport,58.91666794,-111.9666672,CA,CA-AB
CA-0375,closed,Tabu Airport,47.333332,-65.433334,CA,CA-NB
CA-0376,closed,Talbot Lake Airport,57.33333206,-115.5999985,CA,CA-AB
CA-0377,closed,Tatla Lake Airport,51.91666794,-124.5999985,CA,CA-BC
CA-0378,closed,Terrace Bay Airport,48.81197899,-87.09943771,CA,CA-ON
CA-0379,closed,Tetachuck Lake Airport,53.26666641,-126.0666656,CA,CA-BC
CA-0381,closed,Thunder Lake Airport,52.83333206,-116.7166672,CA,CA-AB
CA-0382,closed,Thunder River Airport,67.46666718,-130.8500061,CA,CA-NT
CA-0383,closed,Thurston Lake Airport,59.944113,-118.079388,CA,CA-AB
CA-0384,closed,Tintina (Conwest) Airport,61.08333206,-131.2166595,CA,CA-YT
CA-0385,closed,Trinity Bay Airport,49.40000153,-67.31666565,CA,CA-QC
CA-0386,closed,Trout Brook Airport,46.466667,-65.466667,CA,CA-NB
CA-0387,closed,Trout Mountain Airport,56.79999924,-114.4166641,CA,CA-AB
CA-0388,closed,Tuktoyaktuk (Imperial) Airport,69.4248,-132.9467,CA,CA-NT
CA-0389,closed,Tununuk Airport,69,-134.6666718,CA,CA-NT
CA-0390,closed,Twin Lakes Airport,51.56666565,-123.8166656,CA,CA-BC
CA-0392,closed,Dunphy Airport,46.62863541,-65.8719635,CA,CA-NB
CA-0394,closed,Utikuma River Airport,56.04999924,-115.3166656,CA,CA-AB
CA-0395,closed,Valemount Aerodrome,52.865732,-119.295711,CA,CA-BC
CA-0396,closed,Burnaby (Terminal) Heliport,49.2691977,-122.9333398,CA,CA-BC
CA-0397,closed,Vankleek Hill Airport,45.450003,-74.683334,CA,CA-ON
CA-0398,closed,Vanscoy Airport,52.01666641,-107.0333328,CA,CA-SK
CA-0399,closed,Mcdonald's Farm Airport,50.25,-113.366669,CA,CA-AB
CA-0400,closed,Mile 100 Airport,51.38330078,-65.63330078,CA,CA-QC
CA-0401,closed,Wadlin Tower Airport,57.76666641,-115.4499969,CA,CA-AB
CA-0402,closed,Washademoak Airport,45.84999847,-65.84999847,CA,CA-NB
CA-0403,closed,Webbwood Airport,46.3197,-81.8744,CA,CA-ON
CA-0404,closed,Werenko Airport,48.799886,-93.081944,CA,CA-ON
CA-0405,closed,West Baffin Island Airport,68.6166687,-73.25,CA,CA-NU
CA-0406,closed,Whitecourt (Forestry) Heliport,54.13333511,-115.6666641,CA,CA-AB
CA-0407,closed,Wiebenville Airport,52.21666718,-90.46666718,CA,CA-ON
CA-0408,closed,Wildhay Airport,53.86666489,-117.5500031,CA,CA-AB
CA-0410,closed,Willow Creek Airport,49,-109.7333298,CA,CA-SK
CA-0412,closed,Winisk Airport,55.2242,-85.1174,CA,CA-ON
CA-0413,closed,Wolf Lake Airport,53.21666718,-116.0833359,CA,CA-AB
CA-0414,closed,Worsley Airport,56.51666641,-119.0833359,CA,CA-AB
CA-0415,closed,Woss Airport,50.215459,-126.619756,CA,CA-BC
CA-0417,closed,Yarbo Airport,50.71666718,-101.9333344,CA,CA-SK
CA-0418,closed,Yates Tower Airport,59.90000153,-116.3499985,CA,CA-AB
CA-0419,closed,Yellowknife (Aero Arctic) Heliport,62.45000076,-114.4169998,CA,CA-NT
CA-0420,closed,Miramar Con Mines Heliport,62.43330002,-114.3669968,CA,CA-NT
CA-0421,closed,Youngstown (E.C. Air) Airport,51.53333282,-111.1333313,CA,CA-AB
CA-0422,closed,Yoyo Airport,58.9258,-121.473201,CA,CA-BC
CA-0423,closed,Île d'Orléans Heliport,46.98333359,-70.83333588,CA,CA-QC
CA-0426,closed,Herb's Travel Plaza Airstrip,45.46751319,-74.67668152,CA,CA-ON
CA-0429,closed,Stevensville Airstrip,42.93964806,-79.09864426,CA,CA-ON
CA-0434,closed,Jarvis (No.1 Bombing & Gunnery School),42.83619903,-80.04467011,CA,CA-ON
CA-0436,closed,Kohler Airstrip,42.90300482,-79.85537052,CA,CA-ON
CA-0437,closed,White's Airstrip,43.94594402,-77.24420786,CA,CA-ON
CA-0438,closed,Scott's Airstrip,43.87351946,-77.15874195,CA,CA-ON
CA-0439,closed,Wellington Airstrip,43.96376997,-77.31192827,CA,CA-ON
CA-0441,closed,Edmonton / St. Albert,53.69004894,-113.6934328,CA,CA-AB
CA-0462,closed,Montreal / Vieux Port,45.505204,-73.546815,CA,CA-QC
CA-0467,closed,Ajax / Picov Downs,43.87085886,-79.01186943,CA,CA-ON
CA-0483,closed,Armour Heights Field,43.740833,-79.422222,CA,CA-ON
CA-0484,closed,Barker Field,43.71466621,-79.45590377,CA,CA-ON
CA-0485,closed,De Lesseps Field,43.69876697,-79.49644804,CA,CA-ON
CA-0486,closed,Leaside Aerodrome,43.712778,-79.359167,CA,CA-ON
CA-0487,closed,Long Branch Aerodrome,43.57297586,-79.55341816,CA,CA-ON
CA-0488,closed,Toronto Aerodrome,43.748889,-79.460833,CA,CA-ON
CA-0489,closed,Willowdale Airfield,43.76522101,-79.42374945,CA,CA-ON
CA-0490,closed,Aérodrome Saint-Louis,46.77073267,-71.28547668,CA,CA-QC
CA-0491,closed,Montréal / Boucherville Water Aerodrome,45.627778,-73.454722,CA,CA-QC
CA-0494,closed,L'escapade,48.42857407,-74.5183754,CA,CA-ON
CA-0496,closed,CNRL Strip,54.884211,-120.647564,CA,CA-BC
CA-0499,closed,Sumas Municipal,49.03851501,-122.1306753,CA,CA-BC
CA-0501,closed,Don's Airstrip,43.98605261,-77.1874094,CA,CA-ON
CA-0509,closed,Cruikshank Air Field,44.58123677,-80.97970963,CA,CA-ON
CA-0519,closed,No. 4 E.F.T.S. Windsor Mills Airfield,45.51927826,-72.03164577,CA,CA-QC
CA-0532,closed,Clapp Farm Airfield,43.91095626,-77.08138704,CA,CA-ON
CA-0548,closed,North Cariboo Air Park,54.0080986,-123.0230026,CA,CA-BC
CA-0552,closed,Shingle Point Water Aerodrome,68.935,-137.225,CA,CA-YT
CA-0557,closed,Fort Providence Water Aerodrome,61.35,-117.651,CA,CA-NT
CA-0559,closed,Calling Lake Water Aerodrome,55.226,-113.198,CA,CA-AB
CA-0560,closed,Sawmill Bay Bay Water Aerodrome,65.72,-118.84,CA,CA-NT
CA-0569,closed,Gunnar Airport,59.4092,-108.8543,CA,CA-SK
CA-0570,closed,RCAF Detachment Alliston,44.12,-79.82,CA,CA-ON
CA-0573,closed,Ste-Marguerite Water Aerodrome,46.032733,-74.054189,CA,CA-QC
CA-0574,closed,Les Cèdres Water Aerodrome,45.306001,-74.058008,CA,CA-QC
CA-0576,closed,Flame Lake Water Aerodrome,47.290002,-83.180002,CA,CA-ON
CA-0577,closed,Mustardville Airport,43.0458001,-81.6925,CA,CA-QC
CA-0578,closed,Island Marina Water Aerodrome,45.4424002,-77.6925,CA,CA-ON
CA-0592,closed,Shubenacadie Airport,45.0935,-63.3951,CA,CA-NS
CA-0593,closed,Shortts Lake Water Aerodrome,45.2389,-63.3286,CA,CA-NS
CA-0596,closed,Machmell Airport,51.6561,-126.681703,CA,CA-BC
CA-0597,closed,Fort Good Hope Water Aerodrome,66.251502,-128.6497,CA,CA-NT
CA-0599,closed,Antler Airport,49.5844,-101.5599,CA,CA-SK
CA-0600,closed,Rivère l'Acadie Water Aerodrome,45.49035,-73.303326,CA,CA-QC
CA-0601,closed,Russell Airport,45.292501,-75.3081,CA,CA-ON
CA-0603,closed,Homathko River Airport,50.9501002,-124.8848,CA,CA-BC
CA-0605,closed,Disraeli Inlet Water Aerodrome,82.75,-73,CA,CA-NU
CA-0607,closed,O'sullivan Lake Water Aerodrome,50.4333,-87.1167,CA,CA-ON
CA-0608,closed,Evergreen Acres Airport,53.5133,-108.6653,CA,CA-SK
CA-0613,closed,Jumping Cairbou Lake Water Aerodrome,46.88,-79.78,CA,CA-ON
CA-0614,closed,Wawa Lake Water Aerodrome,48,-84.760001,CA,CA-ON
CA-0615,closed,Sundance Airport,53.526,-114.61,CA,CA-AB
CA-0616,closed,St-Tite Airport,46.7156,-72.58702,CA,CA-QC
CA-0617,closed,Iqaluit Water Aerodrome,63.730001,-68.51,CA,CA-NU
CA-0618,closed,Pinchgut Lake Water Aerodrome,48.817,-57.990001,CA,CA-NL
CA-0619,closed,Island Marina Water Aerodrome,45.4425,-77.6925,CA,CA-ON
CA-0620,closed,Blenheim Airport,42.283,-82.002,CA,CA-ON
CA-0622,closed,Longstaff Bluff Water Aerodrome,68.91,-75.27,CA,CA-NU
CA-0623,closed,Miguasha Airport,48.0758,-66.282,CA,CA-QC
CA-0624,closed,Lac Pontbriand Water Aerodrome,46.051003,-73.78,CA,CA-QC
CA-0625,closed,Fort Vermilion Water Aerodrome,58.407203,-115.973601,CA,CA-AB
CA-0627,closed,Matagami Heliport,49.7534,-77.6626,CA,CA-QC
CA-0628,closed,Little Grand Rapids Water Aerodrome,52.036,-95.47,CA,CA-MB
CA-0631,closed,Lac Boyer Water Aerodrome,47.937102,-77.3534,CA,CA-QC
CA-0632,closed,Green Lake Water Aerodrome,54.27,-107.795,CA,CA-SK
CA-0633,closed,Calgary Broadcast House Helipad,51.0589,-114.171401,CA,CA-AB
CA-0637,closed,Stornoway Airport,45.739983,-71.21865,CA,CA-QC
CA-0638,closed,Louisville/Cascades Heliport,46.259103,-72.9511,CA,CA-QC
CA-0639,closed,Alexis Creek Airport,52.0632,-123.2585,CA,CA-BC
CA-0640,closed,Stuart Lake Water Aerodrome,54.450003,-124.31,CA,CA-BC
CA-0643,closed,Bowden Airport,51.9832,-114.0115,CA,CA-AB
CA-0644,closed,Fort Coulonge Water Aerodrome,45.835,-76.752,CA,CA-QC
CA-0645,closed,Ethelda Bay Coast Guard Heliport,53.0536,-129.680003,CA,CA-BC
CA-0646,closed,Selkirk Mountain Heliport,51.010905,-118.209501,CA,CA-BC
CA-0650,closed,Mount Lake Water Aerodrome,49.803502,-89.252,CA,CA-ON
CA-0651,closed,Northumberland Health Care Centre Helipap,43.9667,-78.286901,CA,CA-ON
CA-0652,closed,Malartic Airport,48.1551,-78.1412,CA,CA-QC
CA-0654,closed,St. Lina Airport,54.3014,-111.498901,CA,CA-AB
CA-0655,closed,Quebec/Sûreté Heliport,46.834,-71.2841,CA,CA-QC
CA-0657,closed,Pointe-au-Chêne Water Aerodrome,45.640002,-74.75,CA,CA-QC
CA-0659,closed,Yahk Aerodrome,49.109,-116.0598,CA,CA-BC
CA-0662,closed,Tsayta Lake Water Aerodrome,55.450345,-125.457764,CA,CA-BC
CA-0663,closed,Riviere-St-Maurice-Aviation-Mauricie-Seaplane-Base,46.654,-72.704,CA,CA-QC
